FID,NAME,CITY,STATE,COUNTY,LATITUDE,LONGITUDE,TYPE
1,CENTRAL VALLEY GENERAL HOSPITAL,HANFORD,CA,KINGS,36.33615885,-119.6456673,GENERAL ACUTE CARE
2,LOS ROBLES HOSPITAL & MEDICAL CENTER - EAST CAMPUS,WESTLAKE VILAGE,CA,VENTURA,34.15493887,-118.8157364,GENERAL ACUTE CARE
3,EAST LOS ANGELES DOCTORS HOSPITAL,LOS ANGELES,CA,LOS ANGELES,34.0236473,-118.1841648,GENERAL ACUTE CARE
4,SOUTHERN CALIFORNIA HOSPITAL AT HOLLYWOOD,HOLLYWOOD,CA,LOS ANGELES,34.09639136,-118.32523490000001,GENERAL ACUTE CARE
5,KINDRED HOSPITAL BALDWIN PARK,BALDWIN PARK,CA,LOS ANGELES,34.06303893,-117.9674378,GENERAL ACUTE CARE
6,LAKEWOOD REGIONAL MEDICAL CENTER,LAKEWOOD,CA,LOS ANGELES,33.85970662,-118.148403,GENERAL ACUTE CARE
7,MONROVIA MEMORIAL HOSPITAL,MONROVIA,CA,LOS ANGELES,34.14875866,-117.99266770000001,GENERAL ACUTE CARE
8,MONTEREY PARK HOSPITAL,MONTEREY PARK,CA,LOS ANGELES,34.04946606,-118.1382622,GENERAL ACUTE CARE
9,STAR VIEW ADOLESCENT - P H F,TORRANCE,CA,LOS ANGELES,33.82391446,-118.3560969,PSYCHIATRIC
10,CORONA REGIONAL MEDICAL CENTER-MAGNOLIA,CORONA,CA,RIVERSIDE,33.85808331,-117.553858,GENERAL ACUTE CARE
11,MODOC MEDICAL CENTER,ALTURAS,CA,MODOC,41.48005626,-120.545744,GENERAL ACUTE CARE
12,SALINAS VALLEY MEMORIAL HOSPITAL,SALINAS,CA,MONTEREY,36.65903046,-121.6459838,GENERAL ACUTE CARE
13,CORPUS CHRISTI SPECIALTY HOSPITAL,CORPUS CHRISTI,TX,NUECES,27.77851017,-97.39620831,GENERAL ACUTE CARE
14,HEALTHBRIDGE CHILDREN'S HOSPITAL-ORANGE,ORANGE,CA,ORANGE,33.78272717,-117.8338919,CHILDREN
15,HEALTHSOUTH TUSTIN REHABILITATION HOSPITAL,TUSTIN,CA,ORANGE,33.74746074,-117.83105559999998,GENERAL ACUTE CARE
16,KINDRED HOSPITAL BREA,BREA,CA,ORANGE,33.93449589,-117.89394879999999,GENERAL ACUTE CARE
17,KINDRED HOSPITAL WESTMINSTER,WESTMINSTER,CA,ORANGE,33.76353321,-117.99525600000001,GENERAL ACUTE CARE
18,KAWEAH DELTA MENTAL HEALTH HOSPITAL D/P APH,VISALIA,CA,TULARE,36.32084395,-119.3482345,GENERAL ACUTE CARE
19,CHARLTON MEMORIAL HOSPITAL,FOLKSTON,GA,CHARLTON,30.84527535,-82.00505739,GENERAL ACUTE CARE
20,DAUTERIVE HOSPITAL,NEW IBERIA,LA,IBERIA,30.00690698,-91.79452385,GENERAL ACUTE CARE
21,CROCKETT MEDICAL CENTER,CROCKETT,TX,HOUSTON,31.32360364,-95.43889931,GENERAL ACUTE CARE
22,CENTRAL LOUISIANA STATE HOSPITAL,PINEVILLE,LA,RAPIDES,31.32737894,-92.44013511,PSYCHIATRIC
23,REEVES MEMORIAL MEDICAL CENTER,BERNICE,LA,UNION,32.82399167,-92.65664868,GENERAL ACUTE CARE
24,SERENITY SPRINGS SPECIALTY HOSPITAL,FARMERVILLE,LA,UNION,32.77612793,-92.40562585,PSYCHIATRIC
25,RIVERBRIDGE SPECIALTY HOSPITAL,VIDALIA,LA,CONCORDIA,31.56117486,-91.42606698,LONG TERM CARE
26,CITIZENS MEDICAL CENTER,COLUMBIA,LA,CALDWELL,32.06003995,-92.09913767,GENERAL ACUTE CARE
27,BROWN MEMORIAL CONVALESCENT CENTER,ROYSTON,GA,FRANKLIN,34.28325037,-83.11897237,LONG TERM CARE
28,COLLEGE MEDICAL CENTER,LONG BEACH,CA,LOS ANGELES,33.80709287,-118.1933899,GENERAL ACUTE CARE
29,KAISER FOUNDATION HOSPITAL - SAN LEANDRO,SAN LEANDRO,CA,ALAMEDA,37.7064062,-122.1646545,GENERAL ACUTE CARE
30,KINDRED HOSPITAL PARAMOUNT,PARAMOUNT,CA,LOS ANGELES,33.88463186,-118.16226709999998,LONG TERM CARE
31,DEPARTMENT OF STATE HOSPITAL-METROPOLITAN,NORWALK,CA,LOS ANGELES,33.92803135,-118.06798970000001,PSYCHIATRIC
32,PINCKNEYVILLE COMMUNITY HOSPITAL,PINCKNEYVILLE,IL,PERRY,38.084846,-89.349108,CRITICAL ACCESS
33,ST JOSEPH'S HOSPITAL - SAVANNAH,SAVANNAH,GA,CHATHAM,31.98543032,-81.15455637,GENERAL ACUTE CARE
34,KINDRED HOSPITAL ROME,ROME,GA,FLOYD,34.25971345,-85.18023963,LONG TERM CARE
35,UPSON REGIONAL MEDICAL CENTER,THOMASTON,GA,UPSON,32.8862977,-84.33650699,GENERAL ACUTE CARE
36,PHOEBE SUMTER MEDICAL CENTER,AMERICUS,GA,SUMTER,32.06696234,-84.2560502,GENERAL ACUTE CARE
37,ROOSEVELT WARM SPRINGS LTAC HOSPITAL,WARM SPRINGS,GA,MERIWETHER,32.88798074,-84.69234490000001,LONG TERM CARE
38,SOUTHEASTERN REGIONAL MEDICAL CENTER,NEWNAN,GA,COWETA,33.38483465,-84.75774669,GENERAL ACUTE CARE
40,BROWN CTY COMMUNITY TREATMENT CENTER,GREEN BAY,WI,BROWN,44.52271226,-87.92482708,PSYCHIATRIC
41,WHEATON FRANCISCAN WI HEART SPINE AND ORTHO,WAUWATOSA,WI,MILWAUKEE,43.03581215,-88.03726582,GENERAL ACUTE CARE
43,COMPASS BEHAVIORAL CENTER OF ALEXANDRIA,ALEXANDRIA,LA,RAPIDES,31.25219156,-92.48198781,GENERAL ACUTE CARE
44,OCSHNER ST. ANNE GENERAL HOSPITAL,RACELAND,LA,LAFOURCHE,29.70267142,-90.56525390000002,GENERAL ACUTE CARE
45,FELICIANA FORENSIC FACILITY,JACKSON,LA,EAST FELICIANA,30.83263569,-91.21066049,GENERAL ACUTE CARE
46,UNITED MEDICAL HEALTHWEST-NEW ORLEANS,GRETNA,LA,JEFFERSON,29.86597947,-90.03069185,REHABILITATION
48,RIPON MEDICAL CENTER,RIPON,WI,FOND DU LAC,43.83437609,-88.81775153,CRITICAL ACCESS
49,VA MEDICAL CENTER - PROVIDENCE,PROVIDENCE,RI,PROVIDENCE,41.83213908,-71.43314954,GENERAL ACUTE CARE
50,TOMAH VA MEDICAL CENTER,TOMAH,WI,MONROE,44.00308068,-90.49331901,MILITARY
51,ASCENSION GOOD SAMARITAN HLTH CTR,MERRILL,WI,LINCOLN,45.17563254,-89.68183128,GENERAL ACUTE CARE
52,RESTPADD PSYCHIATRIC HEALTH FACILITY,REDDING,CA,SHASTA,40.58659539,-122.4119741,PSYCHIATRIC
53,THE CHAMPION CENTER,LOMPOC,CA,SANTA BARBARA,34.63537161,-120.45218829999999,REHABILITATION
54,STEWART WEBSTER HOSPITAL,RICHLAND,GA,STEWART,32.08616827,-84.66069977,CRITICAL ACCESS
55,KAISER FND HOSP ONTARIO MEDICAL CENTER CAMPUS,ONTARIO,CA,SAN BERNARDINO,34.03207956,-117.60859930000001,GENERAL ACUTE CARE
56,LOMA LINDA UNIV. MED. CENTER EAST CAMPUS HOSPITAL,LOMA LINDA,CA,SAN BERNARDINO,34.04730564,-117.2516368,GENERAL ACUTE CARE
57,ST. BERNARDINE MEDICAL CENTER,SAN BERNARDINO,CA,SAN BERNARDINO,34.13467236,-117.27702,GENERAL ACUTE CARE
58,KAISER FND HOSP - SAN DIEGO,SAN DIEGO,CA,SAN DIEGO,32.79156258,-117.0951595,GENERAL ACUTE CARE
59,SCRIPPS GREEN HOSPITAL,LA JOLLA,CA,SAN DIEGO,32.8968589,-117.24287109999999,GENERAL ACUTE CARE
60,SCRIPPS MEMORIAL HOSPITAL - ENCINITAS,ENCINITAS,CA,SAN DIEGO,33.03734478,-117.2841834,GENERAL ACUTE CARE
61,SHARP MARY BIRCH HOSPITAL FOR WOMEN AND NEWBORNS,SAN DIEGO,CA,SAN DIEGO,32.79829578,-117.1549778,WOMEN
62,UC SAN DIEGO HEALTH HILLCREST - HILLCREST MEDICAL CENTER,SAN DIEGO,CA,SAN DIEGO,32.75477023,-117.1657314,GENERAL ACUTE CARE
63,CALIFORNIA PACIFIC MED CTR-CALIFORNIA WEST,SAN FRANCISCO,CA,SAN FRANCISCO,37.7865092,-122.45603059999999,GENERAL ACUTE CARE
64,CALIFORNIA PACIFIC MED CTR-PACIFIC CAMPUS,SAN FRANCISCO,CA,SAN FRANCISCO,37.79070454,-122.4312945,GENERAL ACUTE CARE
65,"ST. MARY'S MEDICAL CENTER, SAN FRANCISCO",SAN FRANCISCO,CA,SAN FRANCISCO,37.77408876,-122.45375159999999,GENERAL ACUTE CARE
66,KAISER FND HOSP - SANTA ROSA,SANTA ROSA,CA,SONOMA,38.47179301,-122.7270644,GENERAL ACUTE CARE
67,KAISER FND HOSP - REHABILITATION CENTER VALLEJO,VALLEJO,CA,SOLANO,38.12690208,-122.2483773,GENERAL ACUTE CARE
68,WOODLAND MEMORIAL HOSPITAL,WOODLAND,CA,YOLO,38.66392502,-121.79214520000001,GENERAL ACUTE CARE
69,ALTA BATES SUMMIT MED CTR-SUMMIT CAMPUS-SUMMIT,OAKLAND,CA,ALAMEDA,37.82013961,-122.26400420000002,GENERAL ACUTE CARE
70,SAN LEANDRO HOSPITAL,SAN LEANDRO,CA,ALAMEDA,37.71228835,-122.1434937,GENERAL ACUTE CARE
71,ST. ROSE HOSPITAL,HAYWARD,CA,ALAMEDA,37.63344199,-122.0879125,GENERAL ACUTE CARE
72,ST. JOSEPH'S BEHAVIORAL HEALTH CENTER,STOCKTON,CA,SAN JOAQUIN,37.9765963,-121.29107090000001,PSYCHIATRIC
73,ST. JOSEPH'S MEDICAL CENTER OF STOCKTON,STOCKTON,CA,SAN JOAQUIN,37.97046719,-121.2881828,GENERAL ACUTE CARE
74,FOOTHILL PRESBYTERIAN HOSPITAL-JOHNSTON MEMORIAL,GLENDORA,CA,LOS ANGELES,34.13265458,-117.87125970000001,GENERAL ACUTE CARE
75,GLENDALE MEMORIAL HOSPITAL AND HEALTH CENTER,GLENDALE,CA,LOS ANGELES,34.12816563,-118.2566432,GENERAL ACUTE CARE
76,KAISER FOUNDATION LOS ANGELES MEDICAL CENTER,LOS ANGELES,CA,LOS ANGELES,34.09857365,-118.2941753,GENERAL ACUTE CARE
77,KAISER PERMANENTE PANORAMA CITY,PANORAMA CITY,CA,LOS ANGELES,34.21856419,-118.43021929999999,GENERAL ACUTE CARE
78,PROVIDENCE TARZANA MEDICAL CENTER,TARZANA,CA,LOS ANGELES,34.17039322,-118.53190409999999,GENERAL ACUTE CARE
79,SHRINERS HOSPITAL FOR CHILDREN - L.A.,LOS ANGELES,CA,LOS ANGELES,34.06720478,-118.28639209999999,GENERAL ACUTE CARE
80,GARDENS REGIONAL HOSPITAL AND MEDICAL CENTER,HAWAIIAN GARDENS,CA,LOS ANGELES,33.83364001,-118.079678,GENERAL ACUTE CARE
81,ADVENTIST HEALTH CLEARLAKE,CLEARLAKE,CA,LAKE,38.93561886,-122.62014450000001,GENERAL ACUTE CARE
82,VALLEY CHILDREN'S HOSPITAL,MADERA,CA,MADERA,36.88404783,-119.80024240000002,CHILDREN
83,EISENHOWER MEDICAL CENTER,RANCHO MIRAGE,CA,RIVERSIDE,33.76335207,-116.40624109999999,GENERAL ACUTE CARE
84,GOOD SAMARITAN HOSPITAL-SAN JOSE,SAN JOSE,CA,SANTA CLARA,37.25207874,-121.94657690000001,GENERAL ACUTE CARE
85,KAISER FND HOSP - SANTA CLARA,SANTA CLARA,CA,SANTA CLARA,37.33540138,-121.998873,GENERAL ACUTE CARE
86,LUCILE SALTER PACKARD CHILDREN'S HOSP. AT STANFORD,PALO ALTO,CA,SANTA CLARA,37.43600458,-122.17539,GENERAL ACUTE CARE
87,KAISER FND HOSP - REDWOOD CITY,REDWOOD CITY,CA,SAN MATEO,37.48884784,-122.22339009999999,GENERAL ACUTE CARE
88,JOHN MUIR MEDICAL CENTER-CONCORD CAMPUS,CONCORD,CA,CONTRA COSTA,37.98308958,-122.0334968,GENERAL ACUTE CARE
89,SUTTER DELTA MEDICAL CENTER,ANTIOCH,CA,CONTRA COSTA,37.98223445,-121.8029785,GENERAL ACUTE CARE
90,KAISER FND HOSP - SACRAMENTO,SACRAMENTO,CA,SACRAMENTO,38.60179775,-121.39314399999999,GENERAL ACUTE CARE
91,SIERRA NEVADA MEMORIAL HOSPITAL,GRASS VALLEY,CA,NEVADA,39.22801629,-121.0474998,GENERAL ACUTE CARE
92,LA PALMA INTERCOMMUNITY HOSPITAL,LA PALMA,CA,ORANGE,33.84751418,-118.0383023,GENERAL ACUTE CARE
93,SADDLEBACK MEMORIAL MEDICAL CENTER - SAN CLEMENTE,SAN CLEMENTE,CA,ORANGE,33.45706524,-117.65018390000002,GENERAL ACUTE CARE
94,FREMONT MEDICAL CENTER,YUBA CITY,CA,SUTTER,39.14310632,-121.61801200000001,GENERAL ACUTE CARE
95,PIEDMONT MOUNTAINSIDE HOSPITAL,JASPER,GA,PICKENS,34.45824868,-84.41291289,GENERAL ACUTE CARE
96,ST MARYS HEALTH CARE SYSTEM,ATHENS,GA,CLARKE,33.94722132,-83.40525246,GENERAL ACUTE CARE
97,RIDGEVIEW INSTITUTE,SMYRNA,GA,COBB,33.85644329,-84.51105483,PSYCHIATRIC
98,WESTERLY HOSPITAL,WESTERLY,RI,WASHINGTON,41.36218908,-71.82530324,GENERAL ACUTE CARE
99,ST MARYS HOSPITAL MADISON,MADISON,WI,DANE,43.05933846,-89.40142922,GENERAL ACUTE CARE
100,AURORA PSYCHIATRIC HSPTL,WAUWATOSA,WI,MILWAUKEE,43.0467651,-88.00771643,PSYCHIATRIC
101,COLUMBIA CENTER,MEQUON,WI,OZAUKEE,43.25667793,-87.92615796,GENERAL ACUTE CARE
102,THEDACARE MEDICAL CENTER BERLIN,BERLIN,WI,GREEN LAKE,43.97847715,-88.94122636,GENERAL ACUTE CARE
103,MERCY HOSPITAL ROGERS,ROGERS,AR,BENTON,36.30899285,-94.18297802,GENERAL ACUTE CARE
104,ST CROIX REG MED CTR,SAINT CROIX FALLS,WI,POLK,45.40903243,-92.64257812,GENERAL ACUTE CARE
105,WESTFIELDS HOSPITAL,NEW RICHMOND,WI,ST. CROIX,45.11776075,-92.55550038,GENERAL ACUTE CARE
106,ST NICHOLAS HOSPITAL,SHEBOYGAN,WI,SHEBOYGAN,43.7623479,-87.74753796,GENERAL ACUTE CARE
107,VERNON MEM HSPTL,VIROQUA,WI,VERNON,43.55167397,-90.88839128,GENERAL ACUTE CARE
108,PIH HOSPITAL - DOWNEY,DOWNEY,CA,LOS ANGELES,33.9343518,-118.130904,GENERAL ACUTE CARE
109,PROVIDENCE LITTLE COMPANY OF MARY TRANSITIONAL CARE CENTER,TORRANCE,CA,LOS ANGELES,33.83934812,-118.3597215,GENERAL ACUTE CARE
110,LOMA LINDA UNIVERSITY CHILDREN'S HOSPITAL,LOMA LINDA,CA,SAN BERNARDINO,34.05013083,-117.26409450000001,CHILDREN
111,ASCENSION NE WISCONSIN MERCY CAMPUS,OSHKOSH,WI,WINNEBAGO,44.01242072,-88.60104549,GENERAL ACUTE CARE
112,MEDSTAR-GEORGETOWN UNIVERSITY MEDICAL CENTER,WASHINGTON,DC,DISTRICT OF COLUMBIA,38.91195851,-77.07525457,GENERAL ACUTE CARE
113,ADVENT HEALTH DADE CITY,DADE CITY,FL,PASCO,28.34796286,-82.20072008,GENERAL ACUTE CARE
114,DELRAY MEDICAL CENTER,DELRAY BEACH,FL,PALM BEACH,26.43719284,-80.12778775,GENERAL ACUTE CARE
115,POINCIANA MEDICAL CENTER,KISSIMMEE,FL,OSCEOLA,28.14478076,-81.47668786,GENERAL ACUTE CARE
116,ARBOUR FULLER HOSPITAL,ATTLEBORO,MA,BRISTOL,41.92408385,-71.36112256,PSYCHIATRIC
117,ARBOUR HUMAN RESOURCE INSTITUTE,BROOKLINE,MA,NORFOLK,42.35077951,-71.12124228,PSYCHIATRIC
118,ASSENCION ST. VINCENT'S MEDICAL CENTER CLAY COUNTY,MIDDLEBURG,FL,CLAY,30.10876243,-81.83268869,GENERAL ACUTE CARE
119,ENCOMPASS HEALTH REHABILITATION HOSPITAL OF OCALA,OCALA,FL,MARION,29.16587554,-82.16233494,REHABILITATION
120,"NATCHAUG HOSPITAL, INC.",MANSFIELD CENTER,CT,TOLLAND,41.74110392,-72.19801148,PSYCHIATRIC
121,ENCOMPASS HEALTH REHABILITATION HOSPITAL AT MARTIN HEALTH,STUART,FL,MARTIN,27.13343729,-80.22245582,REHABILITATION
122,SHRINERS' HOSPITAL FOR CHILDREN,BOSTON,MA,SUFFOLK,42.36309255,-71.06630188,CHILDREN
123,SPAULDING REHABILITATION HOSPITAL,BOSTON,MA,SUFFOLK,42.37850908,-71.04905555,REHABILITATION
124,DR JOHN C CORRIGAN MENTAL HEALTH CENTER,FALL RIVER,MA,BRISTOL,41.70748691,-71.14571447,PSYCHIATRIC
125,BAY RIDGE HOSPITAL BEVERLY,LYNN,MA,ESSEX,42.47162011,-70.95676093,PSYCHIATRIC
126,ENCOMPASS HEALTH HOSPITAL OF WESTERN MASS,LUDLOW,MA,HAMPDEN,42.15577594,-72.47207734,REHABILITATION
127,T J HEALTH COLUMBIA,COLUMBIA,KY,ADAIR,37.09664157,-85.29454565,GENERAL ACUTE CARE
128,DECATUR COUNTY HOSPITAL,LEON,IA,DECATUR,40.75093467,-93.74694077,GENERAL ACUTE CARE
129,ANDERSON COUNTY HOSPITAL,GARNETT,KS,ANDERSON,38.279877,-95.25033865,CRITICAL ACCESS
130,KEARNY COUNTY HOSPITAL,LAKIN,KS,KEARNY,37.94659327,-101.25192990000001,CRITICAL ACCESS
131,OTTAWA COUNTY HEALTH CENTER,MINNEAPOLIS,KS,OTTAWA,39.12933196,-97.70394425,CRITICAL ACCESS
132,BETH ISRAEL DEACONESS HOSPITAL - NEEDHAM,NEEDHAM,MA,NORFOLK,42.2771,-71.2369,GENERAL ACUTE CARE
133,VIBRA HOSPITAL OF SOUTHWESTERN MASSACHUSETTS,NEW BEDFORD,MA,BRISTOL,41.74072523,-70.94575361,REHABILITATION
134,NORWOOD HOSPITAL,NORWOOD,MA,NORFOLK,42.18899999999999,-71.2021,GENERAL ACUTE CARE
135,SPAULDING REHABILITATION HOSPITAL CAPE COD,SANDWICH,MA,BARNSTABLE,41.7329845,-70.46810284,REHABILITATION
136,CAMBRIDGE HEALTH ALLIANCE - SOMERVILLE CAMPUS,SOMERVILLE,MA,MIDDLESEX,42.39,-71.1094,GENERAL ACUTE CARE
137,SHRINERS' HOSPITAL FOR CHILDREN,SPRINGFIELD,MA,HAMPDEN,42.12131503,-72.59237295,CHILDREN
138,MERCY HOSPITAL FORT SMITH,FORT SMITH,AR,SEBASTIAN,35.35586599,-94.35205497,GENERAL ACUTE CARE
139,HEALTHSOUTH REHABILITATION HOSPITAL OF FORT SMITH,FORT SMITH,AR,SEBASTIAN,35.37394031,-94.41875448,REHABILITATION
140,WHITE COUNTY MEDICAL CENTER - SOUTH CAMPUS,SEARCY,AR,WHITE,35.23409441,-91.73107431,GENERAL ACUTE CARE
141,WHITE COUNTY MEDICAL CENTER - NORTH CAMPUS,SEARCY,AR,WHITE,35.25188604,-91.69700113,GENERAL ACUTE CARE
142,RIVER VALLEY MEDICAL CENTER,DARDANELLE,AR,YELL,35.22047614,-93.15729817,CRITICAL ACCESS
143,BAPTIST HEALTH MEDICAL CENTER - ARKADELPHIA,ARKADELPHIA,AR,CLARK,34.12291357,-93.08882416,CRITICAL ACCESS
144,MERCY HOSPITAL BERRYVILLE,BERRYVILLE,AR,CARROLL,36.3590621,-93.55182577,CRITICAL ACCESS
145,EUREKA SPRINGS HOSPITAL,EUREKA SPRINGS,AR,CARROLL,36.40016379,-93.74423592,CRITICAL ACCESS
146,SOUTHEAST REHABILITATION HOSPITAL,LAKE VILLAGE,AR,CHICOT,33.30629397,-91.28958992,REHABILITATION
147,BRADLEY COUNTY MEDICAL CENTER,WARREN,AR,BRADLEY,33.61036413,-92.05925489,CRITICAL ACCESS
148,FIVE RIVER MEDICAL CENTER,POCAHONTAS,AR,RANDOLPH,36.28976027,-90.99738763,GENERAL ACUTE CARE
149,DALLAS COUNTY MEDICAL CENTER,FORDYCE,AR,DALLAS,33.81085539,-92.42558764,CRITICAL ACCESS
150,CRITTENDEN HOSPITAL ASSOCIATION,WEST MEMPHIS,AR,CRITTENDEN,35.14311024,-90.18909851,GENERAL ACUTE CARE
151,OUACHITA CO. MEDICAL CENTER,CAMDEN,AR,OUACHITA,33.57582113,-92.83673933,GENERAL ACUTE CARE
152,NORTH ARKANSAS REGIONAL MEDICAL CENTER,HARRISON,AR,BOONE,36.23653136,-93.10913937,GENERAL ACUTE CARE
153,STONE COUNTY MEDICAL CENTER,MOUNTAIN VIEW,AR,STONE,35.85658313,-92.08286453,CRITICAL ACCESS
154,PIGGOTT COMMUNITY HOSPITAL,PIGGOTT,AR,CLAY,36.39011947,-90.20483796,CRITICAL ACCESS
155,BAPTIST HEALTH - HEBER SPRINGS,HEBER SPRINGS,AR,CLEBURNE,35.48856958,-92.05798114,CRITICAL ACCESS
156,ST. VINCENT MORRILTON,MORRILTON,AR,CONWAY,35.16801491,-92.72135132,CRITICAL ACCESS
157,UAMS MEDICAL CENTER,LITTLE ROCK,AR,PULASKI,34.74902515,-92.32013731,GENERAL ACUTE CARE
158,BAPTIST HEALTH MEDICAL CENTER - NORTH LITTLE ROCK,LITTLE ROCK,AR,PULASKI,34.78365489,-92.22340916,GENERAL ACUTE CARE
159,UNITED METHODIST BEHAVIORAL HEALTH SYSTEMS,MAUMELLE,AR,PULASKI,34.87643567,-92.39441325,PSYCHIATRIC
160,LEO N. LEVI NATIONAL ARTHRITIS HOSPITAL,HOT SPRINGS,AR,GARLAND,34.50989707,-93.05757749,GENERAL ACUTE CARE
161,HOT SPRINGS REHABILITATION CENTER,HOT SPRINGS,AR,GARLAND,34.51212501,-93.05260787,REHABILITATION
162,CHI ST VINCENT HOSPITAL HOT SPRINGS,HOT SPRINGS,AR,GARLAND,34.46802567,-93.06627041,GENERAL ACUTE CARE
163,BAPTIST HEALTH MEDICAL CENTER - HOT SPRING COUNTY,MALVERN,AR,HOT SPRING,34.35877404,-92.7858884,GENERAL ACUTE CARE
164,ARKANSAS DEPT. OF CORRECTION-DIAGNOSTIC UNIT,PINE BLUFF,AR,JEFFERSON,34.22219143,-92.08268605,GENERAL ACUTE CARE
165,JEFFERSON REGIONAL MEDICAL CENTER,PINE BLUFF,AR,JEFFERSON,34.18773469,-92.0176802,GENERAL ACUTE CARE
166,HEALTHSOUTH REHABILITATION HOSPITAL,FAYETTEVILLE,AR,WASHINGTON,36.10909938,-94.15484504,REHABILITATION
167,"MEMORIAL HEALTH UNIV MED CEN, INC",SAVANNAH,GA,CHATHAM,32.03053088,-81.08886242,GENERAL ACUTE CARE
168,VANTAGE POINT OF NORTHWEST ARKANSAS,FAYETTEVILLE,AR,WASHINGTON,36.12789076,-94.11985143,PSYCHIATRIC
169,NORTHWEST MEDICAL CENTER - WILLOW CREEK WOMEN'S HOSPITAL,SPRINGDALE,AR,WASHINGTON,36.13551027,-94.18621922,WOMEN
170,ASCENSION NE WISCONSIN ST. ELIZABETH HOSPITAL,APPLETON,WI,OUTAGAMIE,44.24825124,-88.40250968,GENERAL ACUTE CARE
171,MENA REGIONAL HEALTH SYSTEM,MENA,AR,POLK,34.5890536,-94.22163124,GENERAL ACUTE CARE
172,MERCY HOSPITAL BOONEVILLE,BOONEVILLE,AR,LOGAN,35.14032192,-93.93517063,CRITICAL ACCESS
173,MERCY HOSPITAL PARIS,PARIS,AR,LOGAN,35.28929334,-93.72487855,CRITICAL ACCESS
174,CROSSRIDGE COMMUNITY HOSPITAL,WYNNE,AR,CROSS,35.21955792,-90.78664054,GENERAL ACUTE CARE
175,BAPTIST HEALTH REHABILITATION INSTITUTE,LITTLE ROCK,AR,PULASKI,34.74429608,-92.38181609,REHABILITATION
176,ASCENSION SACRED HEART REHAB INST,MILWAUKEE,WI,MILWAUKEE,43.06145544,-87.88038438,REHABILITATION
177,SANTA CRUZ VALLEY HOSPITAL,GREEN VALLEY,AZ,PIMA,31.80657111,-111.0100185,GENERAL ACUTE CARE
178,BAPTIST HEALTH MEDICAL CENTER-STUTTGART,STUTTGART,AR,ARKANSAS,34.5175108,-91.55829954,GENERAL ACUTE CARE
179,CASEY COUNTY HOSPITAL,LIBERTY,KY,CASEY,37.31771681,-84.93317191,CRITICAL ACCESS
180,MARCUM AND WALLACE MEMORIAL HOSPITAL,IRVINE,KY,ESTILL,37.706197100000004,-83.97727714,CRITICAL ACCESS
181,HIGHLANDS REGIONAL MEDICAL CENTER,PRESTONSBURG,KY,FLOYD,37.72901006,-82.76732008,GENERAL ACUTE CARE
182,NORTON WOMEN'S AND KOSAIR CHILDREN'S HOSPITAL,LOUISVILLE,KY,JEFFERSON,38.23533009,-85.63293693,WOMEN
183,SAINTS MARY & ELIZABETH HOSPITAL,LOUISVILLE,KY,JEFFERSON,38.17826438,-85.79391641,GENERAL ACUTE CARE
184,THE BROOK - DUPONT,LOUISVILLE,KY,JEFFERSON,38.23569663,-85.62734095,PSYCHIATRIC
185,BAPTIST HEALTH LA GRANGE,LAGRANGE,KY,OLDHAM,38.39489019,-85.37606515,GENERAL ACUTE CARE
186,ADCARE HOSPITAL OF WORCESTER INC,WORCESTER,MA,WORCESTER,42.27641208,-71.79491979,REHABILITATION
187,EDITH NOURSE ROGERS MEMORIAL VETERANS HOSPITAL,BEDFORD,MA,MIDDLESEX,42.5047,-71.2744,MILITARY
188,AMESBURY HEALTH CENTER,AMESBURY,MA,ESSEX,42.848414399999996,-70.93338025,GENERAL ACUTE CARE
189,BETH ISRAEL DEACONESS MEDICAL CENTER - WEST CAMPUS,BOSTON,MA,SUFFOLK,42.3379,-71.1092,GENERAL ACUTE CARE
190,"ARBOUR HOSPITAL, THE",BOSTON,MA,SUFFOLK,42.31581841,-71.11227314,PSYCHIATRIC
191,BEVERLY HOSPITAL ADDISON GILBERT CAMPUS,GLOUCESTER,MA,ESSEX,42.6255,-70.6806,GENERAL ACUTE CARE
192,VIBRA HOSPITAL OF WESTERN MASS CENTRAL CAMPUS,LEICESTER,MA,WORCESTER,42.20189928,-71.89882734,LONG TERM CARE
193,WORCESTER RECOVERY CENTER AND HOSPITAL,WORCESTER,MA,WORCESTER,42.27966719,-71.76906694,PSYCHIATRIC
194,HOULTON REGIONAL HOSPITAL,HOULTON,ME,AROOSTOOK,46.13384624,-67.84362347,CRITICAL ACCESS
195,NORTHERN LIGHT INLAND HOSPITAL,WATERVILLE,ME,KENNEBEC,44.54182648,-69.66149107,GENERAL ACUTE CARE
196,MAINEGENERAL MEDICAL CENTER,AUGUSTA,ME,KENNEBEC,44.31311976,-69.76843437,GENERAL ACUTE CARE
197,MAINEGENERAL MEDICAL CENTER-SETON,WATERVILLE,ME,KENNEBEC,44.54919273,-69.65867356,GENERAL ACUTE CARE
198,SAINT ANDREWS HOSPITAL AND HEALTHCARE CENTER,BOOTHBAY HARBOR,ME,LINCOLN,43.85034393,-69.63876929999999,GENERAL ACUTE CARE
199,MIDMICHIGAN MEDICAL CENTER-GLADWIN,GLADWIN,MI,GLADWIN,43.97594367,-84.49388756,CRITICAL ACCESS
200,HELEN NEWBERRY JOY HOSPITAL,NEWBERRY,MI,LUCE,46.35318009,-85.51565374,CRITICAL ACCESS
201,MUNISING MEMORIAL HOSPITAL,MUNISING,MI,ALGER,46.42527107,-86.6251853,CRITICAL ACCESS
202,BOURNEWOOD HOSPITAL,BROOKLINE,MA,NORFOLK,42.29831857,-71.14928568,PSYCHIATRIC
203,SAINT JOSEPH MERCY LIVINGSTON HOSPITAL,HOWELL,MI,LIVINGSTON,42.61558756,-83.9409904,GENERAL ACUTE CARE
204,HILLSDALE COMMUNITY HEALTH CENTER,HILLSDALE,MI,HILLSDALE,41.91173869,-84.63300353,GENERAL ACUTE CARE
205,DMC SURGERY HOSPITAL,MADISON HEIGHTS,MI,OAKLAND,42.51788754,-83.12010727,GENERAL ACUTE CARE
206,"LAKELAND COMMUNITY HOSPITAL, WATERVLIET",WATERVLIET,MI,BERRIEN,42.18488046,-86.24992583,GENERAL ACUTE CARE
207,MCLAREN CENTRAL MICHIGAN,MOUNT PLEASANT,MI,ISABELLA,43.59912248,-84.76141286,GENERAL ACUTE CARE
208,SPECTRUM HEALTH LUDINGTON HOSPITAL,LUDINGTON,MI,MASON,43.95814794,-86.43040938,GENERAL ACUTE CARE
209,BRONSON LAKEVIEW HOSPITAL,PAW PAW,MI,VAN BUREN,42.22129436,-85.89707006,GENERAL ACUTE CARE
210,DECKERVILLE COMMUNITY HOSPITAL,DECKERVILLE,MI,SANILAC,43.52811921,-82.73424915,GENERAL ACUTE CARE
211,HENRY FORD HOSPITAL,DETROIT,MI,WAYNE,42.36768678,-83.08472312,GENERAL ACUTE CARE
212,MAYO CLINIC HEALTH SYS ALBT LE,ALBERT LEA,MN,FREEBORN,43.6523607,-93.37275229999999,GENERAL ACUTE CARE
213,MAYO CLINIC HEALTH SYS CF,CANNON FALLS,MN,GOODHUE,44.48616464,-92.90320229999999,CRITICAL ACCESS
214,MAYO CLINIC HEALTH SYS FAIRMNT,FAIRMONT,MN,MARTIN,43.63880146,-94.450437,GENERAL ACUTE CARE
215,MAYO CLINIC HEALTH SYSTEM S F,SPRINGFIELD,MN,BROWN,44.24661914,-94.97108361,CRITICAL ACCESS
216,HARRY S. TRUMAN MEMORIAL VETERANS HOSPITAL,COLUMBIA,MO,BOONE,38.93666726,-92.32905785,GENERAL ACUTE CARE
217,VIBRA HOSPITAL OF CENTRAL DAKOTAS,MANDAN,ND,MORTON,46.8418693,-100.90769770000001,LONG TERM CARE
218,JACOBSON MEMORIAL HOSPITAL & CARE CENTER,ELGIN,ND,GRANT,46.40732581,-101.8414635,CRITICAL ACCESS
219,COMMUNITY HOSPITAL OF ANDERSON AND MADISON COUNTY,ANDERSON,IN,MADISON,40.13064559,-85.69320918,GENERAL ACUTE CARE
220,MEMORIAL HOSPITAL OF SOUTH BEND,SOUTH BEND,IN,ST. JOSEPH,41.68405529,-86.25157885,GENERAL ACUTE CARE
221,COMPLEX CARE HOSPITAL AT TENAYA,LAS VEGAS,NV,CLARK,36.20553077,-115.2503564,LONG TERM CARE
222,DESERT SPRINGS HOSPITAL MEDICAL CENTER,LAS VEGAS,NV,CLARK,36.11395958,-115.12450520000002,GENERAL ACUTE CARE
223,EASTERN REGIONAL MEDICAL CENTER,PHILADELPHIA,PA,PHILADELPHIA,40.01881298,-75.09946405,GENERAL ACUTE CARE
224,THOMAS JEFFERSON UNIVERSITY HOSPITAL,PHILADELPHIA,PA,PHILADELPHIA,39.94970838,-75.15794605,GENERAL ACUTE CARE
225,PENN PRESBYTERIAN MEDICAL CENTER,PHILADELPHIA,PA,PHILADELPHIA,39.95887248,-75.19926368,GENERAL ACUTE CARE
226,ST JOSEPHS HOSPITAL,PHILADELPHIA,PA,PHILADELPHIA,39.97148609,-75.16319015,GENERAL ACUTE CARE
227,VA MEDICAL CENTER - PHILADELPHIA,PHILADELPHIA,PA,PHILADELPHIA,39.94788477,-75.20007509,MILITARY
228,GEISINGER MEDICAL CENTER,DANVILLE,PA,MONTOUR,40.96814496,-76.60525611,GENERAL ACUTE CARE
229,NORTHSIDE HOSPITAL - CHEROKEE,CANTON,GA,CHEROKEE,34.229238,-84.466259,GENERAL ACUTE CARE
230,"SOUTHWELL MEDICAL, A CAMPUS OF TRMC",ADEL,GA,COOK,31.10819893,-83.42737285,GENERAL ACUTE CARE
231,NORTHERN MONTANA HOSPITAL,HAVRE,MT,HILL,48.53807731,-109.68581780000001,GENERAL ACUTE CARE
232,MUSC MEDICAL CENTER,CHARLESTON,SC,CHARLESTON,32.78588204,-79.94792136,GENERAL ACUTE CARE
233,VERITAS COLLABORATIVE GEORGIA,ATLANTA,GA,DEKALB,33.9242473,-84.33106507,PSYCHIATRIC
234,PAGE MEMORIAL HOSPITAL,LURAY,VA,PAGE,38.66325,-78.468518,CRITICAL ACCESS
235,UH PORTAGE - ROBINSON MEMORIAL HOSPITAL,RAVENNA,OH,PORTAGE,41.17605775,-81.24901729999999,GENERAL ACUTE CARE
236,DELL CHILDREN'S MEDICAL CENTER,AUSTIN,TX,TRAVIS,30.30311083,-97.70702246,CHILDREN
237,COOK CHILDREN'S MEDICAL CENTER,FORT WORTH,TX,TARRANT,32.73707173,-97.34140504,CHILDREN
238,ARBOR HEALTH MORTON GENERAL HOSPITAL,MORTON,WA,LEWIS,46.55567481,-122.2803544,CRITICAL ACCESS
239,"INDIANA SPINE HOSPITAL, LLC",CARMEL,IN,HAMILTON,39.98041995,-86.15347262,SPECIAL
240,ASCENSION SE WISCONSIN HOSPITAL - ELMBROOK CAMPUS,BROOKFIELD,WI,WAUKESHA,43.0593759,-88.15451943,GENERAL ACUTE CARE
241,ASCENSION SE WISCONSIN HOSPITAL - FRANKLIN CAMPUS,FRANKLIN,WI,MILWAUKEE,42.86001258,-87.9540681,GENERAL ACUTE CARE
242,ASCENSION SE WISCONSIN HOSPITAL ST JOSEPH,MILWAUKEE,WI,MILWAUKEE,43.07412025,-87.9760734,GENERAL ACUTE CARE
243,ASCENSION ST CLARES HOSPITAL,WESTON,WI,MARATHON,44.89018231,-89.58014599,GENERAL ACUTE CARE
244,ASCENSION ST FRANCIS HOSPITAL,MILWAUKEE,WI,MILWAUKEE,42.98565775,-87.93465729,GENERAL ACUTE CARE
245,ASCENSION ST MARYS HOSPITAL,RHINELANDER,WI,ONEIDA,45.63947041,-89.37482659,GENERAL ACUTE CARE
246,MIAMI VALLEY HOSPITAL,DAYTON,OH,MONTGOMERY,39.7448932,-84.18590861,GENERAL ACUTE CARE
247,ASCENSION ST MICHAELS HOSPITAL,STEVENS POINT,WI,PORTAGE,44.52643184,-89.56709621,GENERAL ACUTE CARE
248,ASPIRUS RIVERVIEW HSPTL ASSOC,WISCONSIN RAPIDS,WI,WOOD,44.38175803,-89.82988944,GENERAL ACUTE CARE
249,ASPIRUS WAUSAU HOSPITAL,WAUSAU,WI,MARATHON,44.96584185,-89.66789021,GENERAL ACUTE CARE
250,AURORA LAKELAND MED CTR,ELKHORN,WI,WALWORTH,42.66189503,-88.49619199,GENERAL ACUTE CARE
251,AURORA MED CENTER-WASHINGTON COUNTY,HARTFORD,WI,WASHINGTON,43.31840584,-88.36246156,GENERAL ACUTE CARE
252,AURORA MED CTR KENOSHA,KENOSHA,WI,KENOSHA,42.56939682,-87.93546502,GENERAL ACUTE CARE
253,AURORA MED CTR MANITOWOC CTY,TWO RIVERS,WI,MANITOWOC,44.12536783,-87.61945613,GENERAL ACUTE CARE
254,MHP MEDICAL CENTER,SHELBYVILLE,IN,SHELBY,39.560356,-85.78581700000001,GENERAL ACUTE CARE
255,COVENANT CHILDREN'S HOSPITAL,LUBBOCK,TX,LUBBOCK,33.57340325,-101.900592,CHILDREN
256,PARKVIEW WABASH HOSPITAL,WABASH,IN,WABASH,40.820937,-85.823901,GENERAL ACUTE CARE
257,NEURO BEHAVIORAL HOSPITAL,CROWN POINT,IN,LAKE,41.44880307,-87.33726012,PSYCHIATRIC
258,PERRY COUNTY MEMORIAL HOSPITAL,TELL CITY,IN,PERRY,37.967931,-86.731667,GENERAL ACUTE CARE
259,ST JOSEPH HEALTH CENTER,WARREN,OH,TRUMBULL,41.23091175,-80.77715528,GENERAL ACUTE CARE
260,TRUMBULL MEMORIAL HOSPITAL,WARREN,OH,TRUMBULL,41.23585592,-80.79877826,GENERAL ACUTE CARE
261,PROVIDENCE HOOD RIVER MEMORIAL HOSPITAL,HOOD RIVER,OR,HOOD RIVER,45.70483197,-121.52390859999998,CRITICAL ACCESS
262,RIVERSIDE MEDICAL CENTER,KANKAKEE,IL,KANKAKEE,41.12508686,-87.88189889,GENERAL ACUTE CARE
263,BLUE MOUNTAIN HOSPITAL,JOHN DAY,OR,GRANT,44.41711272,-118.9596915,CRITICAL ACCESS
264,VASSAR BROTHERS MEDICAL CENTER,POUGHKEEPSIE,NY,DUTCHESS,41.69385894,-73.93578611,GENERAL ACUTE CARE
265,ERIE COUNTY MEDICAL CENTER,BUFFALO,NY,ERIE,42.9250771,-78.83114577,GENERAL ACUTE CARE
266,STRONG MEMORIAL HOSPITAL,ROCHESTER,NY,MONROE,43.12280887,-77.62425943,GENERAL ACUTE CARE
267,NORTH SHORE UNIVERSITY HOSPITAL,MANHASSET,NY,NASSAU,40.77763592,-73.70161094,GENERAL ACUTE CARE
268,EDWIN SHAW REHABILITATION INSTITUTE,CUYAHOGA FALLS,OH,SUMMIT,41.13214627,-81.47737547,REHABILITATION
269,NASSAU UNIVERSITY MEDICAL CENTER,EAST MEADOW,NY,NASSAU,40.72625551,-73.55373802,GENERAL ACUTE CARE
270,SOUTH NASSAU COMMUNITIES HOSPITAL,OCEANSIDE,NY,NASSAU,40.650998,-73.63083944,GENERAL ACUTE CARE
271,UNIVERSITY HOSPITAL SUNY HEALTH SCIENCE CENTER,SYRACUSE,NY,ONONDAGA,43.04189732,-76.13983046,GENERAL ACUTE CARE
272,ST. LUKE'S CORNWALL HOSPITAL - NEWBURGH CAMPUS,NEWBURGH,NY,ORANGE,41.50342485,-74.01456558,GENERAL ACUTE CARE
273,PARKLAND MEDICAL CENTER,DERRY,NH,ROCKINGHAM,42.87677117,-71.31666154,GENERAL ACUTE CARE
274,ORANGE REGIONAL MEDICAL CENTER,MIDDLETOWN,NY,ORANGE,41.44191408,-74.36831227,GENERAL ACUTE CARE
275,SAMARITAN HOSPITAL,TROY,NY,RENSSELAER,42.73329249,-73.672164,GENERAL ACUTE CARE
276,CANTON-POTSDAM HOSPITAL,POTSDAM,NY,ST. LAWRENCE,44.67651062,-74.98211632,GENERAL ACUTE CARE
277,PEACEHEALTH PEACE ISLAND MEDICAL CENTER,FRIDAY HARBOR,WA,SAN JUAN,48.52677897,-123.0296011,CRITICAL ACCESS
278,MONTEFLORE NYACK HOSPITAL,NYACK,NY,ROCKLAND,41.09621147,-73.92601813,GENERAL ACUTE CARE
279,SARATOGA HOSPITAL,SARATOGA,NY,SARATOGA,43.08588022,-73.79678273,GENERAL ACUTE CARE
280,NORTHSHORE UNIVERSITY HEALTHSYSTEM DBA HIGHLAND PARK HOSPITAL,HIGHLAND PARK,IL,LAKE,42.19110677,-87.80841495,GENERAL ACUTE CARE
281,ADVOCATE CONDELL MEDICAL CENTER,LIBERTYVILLE,IL,LAKE,42.274235,-87.95769974,GENERAL ACUTE CARE
282,ADVOCATE GOOD SHEPHERD HOSPITAL,BARRINGTON,IL,LAKE,42.19538237,-88.17281887,GENERAL ACUTE CARE
283,GALESBURG COTTAGE HOSPITAL,GALESBURG,IL,KNOX,40.95579903,-90.36576026,GENERAL ACUTE CARE
284,ST MARY MEDICAL CENTER,GALESBURG,IL,KNOX,40.98671028,-90.36024492,GENERAL ACUTE CARE
285,MIDWESTERN REGION MED CENTER,ZION,IL,LAKE,42.44925783,-87.82783284,GENERAL ACUTE CARE
286,KENNEDY KREIGER INSTITUTE,BALTIMORE,MD,BALTIMORE CITY,39.29928098,-76.59281871,GENERAL ACUTE CARE
287,MERCY MEDICAL CENTER,BALTIMORE,MD,BALTIMORE CITY,39.29292155,-76.61288423,GENERAL ACUTE CARE
288,SINAI HOSPITAL OF BALTIMORE,BALTIMORE,MD,BALTIMORE CITY,39.35230251,-76.66209015,GENERAL ACUTE CARE
289,UNIVERSITY OF MARYLAND MEDICAL CENTER,BALTIMORE,MD,BALTIMORE CITY,39.28790857,-76.62492593,GENERAL ACUTE CARE
290,ST. JAMES HOSPITAL,HORNELL,NY,STEUBEN,42.31387327,-77.66061309999999,GENERAL ACUTE CARE
291,JOHNS HOPKINS BAYVIEW MEDICAL CENTER,BALTIMORE,MD,BALTIMORE CITY,39.29067881,-76.54677819,GENERAL ACUTE CARE
292,VALLEY REGIONAL HOSPITAL,CLAREMONT,NH,SULLIVAN,43.38458975,-72.34069671,GENERAL ACUTE CARE
293,HAMPSTEAD HOSPITAL,HAMPSTEAD,NH,ROCKINGHAM,42.87166334,-71.15420708,PSYCHIATRIC
294,FRISBIE MEMORIAL HOSPITAL,ROCHESTER,NH,STRAFFORD,43.2975566,-70.96016086,GENERAL ACUTE CARE
295,CROTCHED MOUNTAIN REHABILITATION CENTER,GREENFIELD,NH,HILLSBOROUGH,42.9718711,-71.87453591,REHABILITATION
296,SOUTHERN NEW HAMPSHIRE MEDICAL CENTER,NASHUA,NH,HILLSBOROUGH,42.75627984,-71.4613747,GENERAL ACUTE CARE
297,ST JOSEPH HOSPITAL,NASHUA,NH,HILLSBOROUGH,42.74923911,-71.48021205,GENERAL ACUTE CARE
298,ELLIOT HOSPITAL CITY OF MANCHESTER,MANCHESTER,NH,HILLSBOROUGH,42.983954,-71.438,GENERAL ACUTE CARE
299,CONCORD HOSPITAL,CONCORD,NH,MERRIMACK,43.19774414,-71.56202040000001,GENERAL ACUTE CARE
300,FRANKLIN REGIONAL HOSPITAL,FRANKLIN,NH,MERRIMACK,43.44840426,-71.64455273,GENERAL ACUTE CARE
301,UNIVERSITY HOSPITAL STONEY BROOK SOUTHAMPTON HOSPITAL,SOUTHAMPTON,NY,SUFFOLK,40.88505974,-72.37994406,GENERAL ACUTE CARE
302,EASTERN LONG ISLAND HOSPITAL,GREENPORT,NY,SUFFOLK,41.11036057,-72.36112732,GENERAL ACUTE CARE
303,HUNTINGTON HOSPITAL,HUNTINGTON,NY,SUFFOLK,40.87932924,-73.41619953,GENERAL ACUTE CARE
304,SOUTHSIDE HOSPITAL,BAY SHORE,NY,SUFFOLK,40.72596015,-73.24115864,GENERAL ACUTE CARE
305,SAINT JOSEPH HOSPITAL,LEXINGTON,KY,FAYETTE,38.03233973,-84.52329929,GENERAL ACUTE CARE
306,SHRINERS HOSPITAL FOR CHILDREN,LEXINGTON,KY,FAYETTE,38.02270661,-84.47269852,CHILDREN
307,GOOD SAMARITAN HOSPITAL - WEST ISLIP,WEST ISLIP,NY,SUFFOLK,40.69388013,-73.29439462,GENERAL ACUTE CARE
308,HEALTHALLIANCE HOSPITAL - BROADWAY CAMPUS,KINGSTON,NY,ULSTER,41.92665841,-73.99484207,GENERAL ACUTE CARE
309,ELLENVILLE REGIONAL HOSPITAL,ELLENVILLE,NY,ULSTER,41.73262979,-74.37903498,CRITICAL ACCESS
310,NEWARK-WAYNE COMMUNITY HOSPITAL,NEWARK,NY,WAYNE,43.06049938,-77.10166991,GENERAL ACUTE CARE
311,ST. JOHN'S RIVERSIDE HOSPITAL - DOBBS FERRY,DOBBS FERRY,NY,WESTCHESTER,41.01439225,-73.86191965,GENERAL ACUTE CARE
312,PHELPS MEMORIAL HOSPITAL CENTER,SLEEPY HOLLOW,NY,WESTCHESTER,41.10900706,-73.86308776,GENERAL ACUTE CARE
313,TWIN LAKES REGIONAL MEDICAL CENTER,LEITCHFIELD,KY,GRAYSON,37.4725153,-86.28859309,GENERAL ACUTE CARE
314,OUR LADY OF BELLEFONTE HOSPITAL,ASHLAND,KY,GREENUP,38.50845432,-82.69261651,GENERAL ACUTE CARE
315,BLYTHEDALE CHILDREN'S HOSPITAL,VALHALLA,NY,WESTCHESTER,41.07484754,-73.79997224,CHILDREN
316,PASSAVANT AREA HOSPITAL,JACKSONVILLE,IL,MORGAN,39.74608499,-90.26048664,GENERAL ACUTE CARE
317,BROOK LANE HEALTH SERVICES,HAGERSTOWN,MD,WASHINGTON,39.676995299999994,-77.61059940000001,PSYCHIATRIC
318,GARRARD COUNTY HOSPITAL,LANCASTER,KY,GARRARD,37.62202606,-84.58515725,GENERAL ACUTE CARE
319,WESTCHESTER MEDICAL CENTER,VALHALLA,NY,WESTCHESTER,41.08609075,-73.80495477,GENERAL ACUTE CARE
320,MONTEFIORE MEDICAL CENTER - MOSES DIVISION,BRONX,NY,BRONX,40.88007926,-73.8798267,GENERAL ACUTE CARE
321,FRANKFORT REGIONAL MEDICAL CENTER,FRANKFORT,KY,FRANKLIN,38.16066175,-84.9068937,LONG TERM CARE
322,NORTH CENTRAL BRONX HOSPITAL,BRONX,NY,BRONX,40.880365600000005,-73.88105711,GENERAL ACUTE CARE
323,MERITUS MEDICAL CENTER,HAGERSTOWN,MD,WASHINGTON,39.62219281,-77.68256295,GENERAL ACUTE CARE
324,BROOKDALE HOSPITAL MEDICAL CENTER,BROOKLYN,NY,KINGS,40.6552691,-73.91255653,GENERAL ACUTE CARE
325,BROOKLYN HOSPITAL CENTER,BROOKLYN,NY,KINGS,40.69057251,-73.97788376,GENERAL ACUTE CARE
326,MONTEFIORE WESTCHESTER SQUARE MEDICAL CENTER,BRONX,NY,BRONX,40.84074311,-73.84851753,GENERAL ACUTE CARE
327,KINGS COUNTY HOSPITAL CENTER,BROOKLYN,NY,KINGS,40.65661638,-73.94469079,GENERAL ACUTE CARE
328,CONEY ISLAND HOSPITAL,BROOKLYN,NY,KINGS,40.58541438,-73.96533243,GENERAL ACUTE CARE
329,NYU LUTHERAN MEDICAL CENTER,BROOKLYN,NY,KINGS,40.64656399,-74.02091469,GENERAL ACUTE CARE
330,JACOBI MEDICAL CENTER,BRONX,NY,BRONX,40.85629836,-73.84751215,GENERAL ACUTE CARE
331,NEW YORK METHODIST HOSPITAL,BROOKLYN,NY,KINGS,40.6677617,-73.97899052,GENERAL ACUTE CARE
332,NYU HOSPITAL FOR JOINT DISEASES,NEW YORK,NY,NEW YORK,40.73443169,-73.98299996,GENERAL ACUTE CARE
333,NEW YORK PRESBYTERIAN MORGAN STANLEY CHILDREN'S HOSPITAL,NEW YORK,NY,NEW YORK,40.83976326,-73.94128258,CHILDREN
334,THE ADDICTION INSTITUTE OF NEW YORK,NEW YORK,NY,NEW YORK,40.76941213,-73.9868084,PSYCHIATRIC
335,ELMHURST HOSPITAL CENTER,ELMHURST,NY,QUEENS,40.74482736,-73.88607967,GENERAL ACUTE CARE
336,JAMAICA HOSPITAL MEDICAL CENTER,JAMAICA,NY,QUEENS,40.70010365,-73.81611489,GENERAL ACUTE CARE
337,HOOPESTON COMMUNITY MEMORIAL HOSPITAL,HOOPESTON,IL,VERMILION,40.45868989,-87.65973327,CRITICAL ACCESS
338,OSF HEALTHCARESYSTEM DBA SACRED HEART MEDICAL CENTER,DANVILLE,IL,VERMILION,40.13783245,-87.64543324,GENERAL ACUTE CARE
339,THE MEDICAL CENTER AT BOWLING GREEN,BOWLING GREEN,KY,WARREN,36.99597151,-86.42975938,GENERAL ACUTE CARE
340,NEW YORK PRESBYTERIAN QUEENS,FLUSHING,NY,QUEENS,40.74677228,-73.82541638,GENERAL ACUTE CARE
341,"ROCK REGIONAL HOSPITAL, LLC",DERBY,KS,SEDGWICK,37.58277168,-97.24698571,LONG TERM CARE
342,GLEN COVE HOSPITAL,GLEN COVE,NY,NASSAU,40.8710014,-73.62238567,GENERAL ACUTE CARE
343,EPHRAIM MCDOWELL FORT LOGAN HOSPITAL,STANFORD,KY,LINCOLN,37.54279432,-84.65303656,CRITICAL ACCESS
344,LIVINGSTON HOSPITAL AND HEALTHCARE SERVICES,SALEM,KY,LIVINGSTON,37.26305319,-88.22850246,CRITICAL ACCESS
345,MONTEFIORE NEW ROCHELLE HOSPITAL,NEW ROCHELLE,NY,WESTCHESTER,40.91280606,-73.7877626,GENERAL ACUTE CARE
346,MOUNT SINAI BETH ISRAEL BROOKLYN,BROOKLYN,NY,KINGS,40.6188201,-73.94290124,GENERAL ACUTE CARE
347,NEW YORK PRESBYTERIAN HOSPITAL - WESTCHESTER DIVISION,WHITE PLAINS,NY,WESTCHESTER,41.02757951,-73.75390988,PSYCHIATRIC
348,HARLEM HOSPITAL CENTER,NEW YORK,NY,NEW YORK,40.81426493,-73.93986126,GENERAL ACUTE CARE
349,HENRY J. CARTER SPECIALTY HOSPITAL,NEW YORK,NY,NEW YORK,40.80328511,-73.94162385,LONG TERM CARE
350,SAINT BARNABAS HOSPITAL HEALTH SYSTEM,BRONX,NY,BRONX,40.85268901,-73.89136288,GENERAL ACUTE CARE
351,IRA DAVENPORT MEMORIAL HOSPITAL INC,BATH,NY,STEUBEN,42.3743292,-77.27890663,GENERAL ACUTE CARE
352,ST. MARY'S HEALTHCARE - AMSTERDAM MEMORIAL CAMPUS,AMSTERDAM,NY,MONTGOMERY,42.95906517,-74.18712293,GENERAL ACUTE CARE
353,THE BURDETT CARE CENTER,TROY,NY,RENSSELAER,42.73335775,-73.67266608,WOMEN
354,MORRIS HOSPITAL & HEALTHCARE CENTERS,MORRIS,IL,GRUNDY,41.36932589999999,-88.42675331,GENERAL ACUTE CARE
355,SWEDISH AMERICAN HOSPITAL,ROCKFORD,IL,WINNEBAGO,42.26567488,-89.07413954,GENERAL ACUTE CARE
356,JAVON BEA HOSPITAL DBA MERCY HEALTH HOSPITAL ROCKTON AVE,ROCKFORD,IL,WINNEBAGO,42.29842717,-89.09844135,GENERAL ACUTE CARE
357,THE UNIVERSITY OF VERMONT HEALTH NETWORK - CHAMPLAIN VALLEY PHYSICIANS HOSPITAL,PLATTSBURGH,NY,CLINTON,44.70044304,-73.46941987,GENERAL ACUTE CARE
358,MONTEFIORE MEDICAL CENTER-WAKEFIELD HOSPITAL,BRONX,NY,BRONX,40.89369717,-73.86119119,GENERAL ACUTE CARE
359,HOLY CROSS HOSPITAL,SILVER SPRING,MD,MONTGOMERY,39.01472214,-77.03573523,GENERAL ACUTE CARE
360,SILVER CROSS HOSPITAL AND MEDICAL CENTERS,NEW LENOX,IL,WILL,41.54468733,-87.98343597,GENERAL ACUTE CARE
361,ADVENTIST BOLINGBROOK HOSPITAL,BOLINGBROOK,IL,WILL,41.68086496,-88.08465144,GENERAL ACUTE CARE
362,FORT WASHINGTON HOSPITAL,FORT WASHINGTON,MD,PRINCE GEORGE'S,38.72856337,-76.99270169,GENERAL ACUTE CARE
363,MOUNT SINAI ST. LUKE'S,NEW YORK,NY,NEW YORK,40.80492254,-73.96159035,GENERAL ACUTE CARE
364,NEW YORK PRESBYTERIAN HOSPITAL - COLUMBIA PRESBYTERIAN CENTER,NEW YORK,NY,NEW YORK,40.84105288,-73.94068652,GENERAL ACUTE CARE
365,NEW YORK PRESBYTERIAN HOSPITAL - NEW YORK WEILL CORNELL CENTER,NEW YORK,NY,NEW YORK,40.76454994,-73.95433226,GENERAL ACUTE CARE
366,NYULMC - COBBLE HILL,BROOKLYN,NY,KINGS,40.68987342,-73.99776571,GENERAL ACUTE CARE
367,URMC STRONG WEST,BROCKPORT,NY,MONROE,43.22161178,-77.94457511,GENERAL ACUTE CARE
368,WOMEN AND CHILDREN'S HOSPITAL OF BUFFALO,BUFFALO,NY,ERIE,42.90920851,-78.87520901,CHILDREN
369,NYU WINTHROP-UNIVERSITY HOSPITAL,MINEOLA,NY,NASSAU,40.74069748,-73.6430084,GENERAL ACUTE CARE
370,UPMC CHAUTAUQUA AT WCA,JAMESTOWN,NY,CHAUTAUQUA,42.09116724,-79.24536584,PSYCHIATRIC
371,SJRH - PARK CARE PAVILION,YONKERS,NY,WESTCHESTER,40.94038607,-73.89165239,PSYCHIATRIC
372,VA MEDICAL CENTER - CANANDAIGUA,CANANDAIGUA,NY,ONTARIO,42.90123744,-77.26963606,MILITARY
373,FOUR WINDS HOSPITAL WESTCHESTER,KATONAH,NY,WESTCHESTER,41.26639132,-73.62071751,PSYCHIATRIC
374,FOUR WINDS HOSPITAL SARATOGA,SARATOGA SPRINGS,NY,SARATOGA,43.05813047,-73.78539606,PSYCHIATRIC
375,METHODIST HOSPITAL,HENDERSON,KY,HENDERSON,37.85497461,-87.58319902,GENERAL ACUTE CARE
376,CROSSROADS COMMUNITY HOSPITAL,MOUNT VERNON,IL,JEFFERSON,38.31164516,-88.93688084,GENERAL ACUTE CARE
377,COPLEY MEMORIAL HOSPITAL INC DBA RUSH COPLEY MEDICAL CENTER,AURORA,IL,KANE,41.72900718,-88.27061598,GENERAL ACUTE CARE
378,DELNOR COMMUNITY HOSPITAL,GENEVA,IL,KANE,41.88661497,-88.34345036,GENERAL ACUTE CARE
379,PRESENCE CENTRAL AND SUBURBAN HOSPITALS NETWORK DBA PRESENCE MERCY MEDICAL CENTER,AURORA,IL,KANE,41.78580955,-88.32576904,GENERAL ACUTE CARE
380,BLUEGRASS COMMUNITY HOSPITAL,VERSAILLES,KY,WOODFORD,38.05476569,-84.72378834,GENERAL ACUTE CARE
381,JAMES J. PETERS VA MEDICAL CENTER,BRONX,NY,BRONX,40.86734866,-73.90638209,MILITARY
382,HEART OF TEXAS MEMORIAL HOSPITAL,BRADY,TX,MCCULLOCH,31.1176885,-99.34685361,CRITICAL ACCESS
383,JACKSON COUNTY HOSPITAL,EDNA,TX,JACKSON,28.96910475,-96.63588688,CRITICAL ACCESS
384,SCHLEICHER COUNTY MEDICAL CENTER,ELDORADO,TX,SCHLEICHER,30.86300194,-100.6029941,CRITICAL ACCESS
385,TAYLOR REGIONAL HOSPITAL,CAMPBELLSVILLE,KY,TAYLOR,37.36635176,-85.33810656,GENERAL ACUTE CARE
386,COCHRAN MEMORIAL HOSPITAL,MORTON,TX,COCHRAN,33.71973751,-102.7575223,CRITICAL ACCESS
387,WESTERN MARYLAND REGIONAL MEDICAL CENTER,CUMBERLAND,MD,ALLEGANY,39.64783067,-78.7332415,GENERAL ACUTE CARE
388,ANNE ARUNDEL MEDICAL CENTER,ANNAPOLIS,MD,ANNE ARUNDEL,38.98992672,-76.53461243,GENERAL ACUTE CARE
389,KIRBY MEDICAL CENTER,MONTICELLO,IL,PIATT,40.06044805,-88.55882170000001,CRITICAL ACCESS
390,SAINT FRANCIS MEDICAL CENTER,PEORIA,IL,PEORIA,40.70274682,-89.59196543,GENERAL ACUTE CARE
391,BLESSING CARE CORPORATION ILLINI COMMUNITY HOSPITAL,PITTSFIELD,IL,PIKE,39.60744348,-90.8151327,CRITICAL ACCESS
392,MUSCOGEE (CREEK) NATION PHYSICAL REHABILITATION CENTER,OKMULGEE,OK,OKMULGEE,35.66753235,-95.96033181,REHABILITATION
393,BLESSING HOSPITAL,QUINCY,IL,ADAMS,39.93635888,-91.3994572,GENERAL ACUTE CARE
394,VALIR REHABILITATION HOSPITAL OF OKC,OKLAHOMA CITY,OK,OKLAHOMA,35.47489624,-97.52494158,REHABILITATION
395,METHODIST MEDICAL CENTER OF ILLINOIS,PEORIA,IL,PEORIA,40.700305799999995,-89.59491684,GENERAL ACUTE CARE
396,REHABILITATION INSTITUTE OF CHICAGO,CHICAGO,IL,COOK,41.89545454,-87.6183348,REHABILITATION
397,RIVEREDGE HOSPITAL,FOREST  PARK,IL,COOK,41.86489307,-87.82828251,PSYCHIATRIC
398,NORTHSHORE UNIVERSITY HEALTH SYSTEM SKOKIE HOSPITAL,SKOKIE,IL,COOK,42.05641606,-87.74070961,GENERAL ACUTE CARE
399,RUSH OAK PARK HOSPITAL,OAK PARK,IL,COOK,41.87861801,-87.80335153,GENERAL ACUTE CARE
400,ADVENTIST MIDWEST HEALTH DBA ADVENTIST LA GRANGE MEMORIAL HOSPITAL,LA GRANGE,IL,COOK,41.79706055,-87.88639493,GENERAL ACUTE CARE
401,GOTTLEB MEMORIAL HOSPITAL LOYOLA HEALTH SYSTEM AT GOTTLIEB,MELROSE PARK,IL,COOK,41.91052978,-87.84281507,GENERAL ACUTE CARE
402,CHRISTUS MOTHER FRANCES HOSPITAL - WINNSBORO,WINNSBORO,TX,WOOD,32.94453832,-95.30727963,CRITICAL ACCESS
403,YOAKUM COMMUNITY HOSPITAL,YOAKUM,TX,LAVACA,29.30695852,-97.12915909,CRITICAL ACCESS
404,LORETTO HOSPITAL,CHICAGO,IL,COOK,41.87212457,-87.76408865,GENERAL ACUTE CARE
405,THE UNIVERSITY OF CHICAGO MEDICAL CENTER,CHICAGO,IL,COOK,41.78874685,-87.60433713,GENERAL ACUTE CARE
406,GOLDEN PLAINS COMMUNITY HOSPITAL,BORGER,TX,HUTCHINSON,35.65513819,-101.40918070000001,CRITICAL ACCESS
407,THOREK MEMORIAL HOSPITAL,CHICAGO,IL,COOK,41.95518902,-87.65162124,GENERAL ACUTE CARE
408,JOHN H STROGER JR HOSPITAL,CHICAGO,IL,COOK,41.87233487,-87.67439846,GENERAL ACUTE CARE
409,MERCY HOSPITAL AND MEDICAL CENTER,CHICAGO,IL,COOK,41.84688958,-87.6214916,GENERAL ACUTE CARE
410,LITTLE COMPANY OF MARY HOSPITAL,EVERGREEN PARK,IL,COOK,41.721465,-87.69302888,GENERAL ACUTE CARE
411,ADVOCATE NORTHSIDE HEALTH NETWORK DBA ILLINOIS MASONIC MEDICAL CENTER,CHICAGO,IL,COOK,41.93674085,-87.65137166,GENERAL ACUTE CARE
412,METHODIST HOSPITAL OF CHICAGO,CHICAGO,IL,COOK,41.97308677,-87.67074306,GENERAL ACUTE CARE
413,ADVOCATE CHRIST HOSPITAL & MEDICAL CENTER,OAK LAWN,IL,COOK,41.72169452,-87.73244225,GENERAL ACUTE CARE
414,LUTHERAN GENERAL HOSPITAL ADVOCATE,PARK RIDGE,IL,COOK,42.03880223,-87.84733438,GENERAL ACUTE CARE
415,NORTHWEST COMMUNITY HOSPITAL,ARLINGTON HEIGHTS,IL,COOK,42.06829111,-87.99218163,GENERAL ACUTE CARE
416,ALEXIAN BROTHERS MEDICAL CENTER,ELK GROVE VILLAGE,IL,COOK,42.00465682,-88.01689228,GENERAL ACUTE CARE
417,NORTHWESTERN MEMORIAL HOSPITAL,CHICAGO,IL,COOK,41.89460771,-87.62102437,GENERAL ACUTE CARE
418,ST ALEXIUS MEDICAL CENTER,HOFFMAN ESTATES,IL,COOK,42.05292846,-88.14103422,GENERAL ACUTE CARE
419,PROVIDENT HOSPITAL OF COOK COUNTY,CHICAGO,IL,COOK,41.80267501,-87.61332387,GENERAL ACUTE CARE
420,RUSSELL COUNTY HOSPITAL,RUSSELL SPRINGS,KY,RUSSELL,37.05758045,-85.06735281,GENERAL ACUTE CARE
421,RALEIGH GENERAL HOSPITAL,BECKLEY,WV,RALEIGH,37.7875544,-81.20193159,GENERAL ACUTE CARE
422,ROCKCASTLE REGIONAL HOSPITAL & RESPIRATORY CARE CENTER,MT VERNON,KY,ROCKCASTLE,37.35796432,-84.33590332,GENERAL ACUTE CARE
423,UNION HOSPITAL OF CECIL COUNTY,ELKTON,MD,CECIL,39.60851453,-75.83196705,GENERAL ACUTE CARE
424,BAPTIST HEALTH LOUISVILLE,LOUISVILLE,KY,JEFFERSON,38.23811825,-85.6371443,GENERAL ACUTE CARE
425,JEWISH HOSPITAL & ST. MARY'S HEALTHCARE,LOUISVILLE,KY,JEFFERSON,38.24913165,-85.7511895,GENERAL ACUTE CARE
426,KINDRED HOSPITAL - LOUISVILLE,LOUISVILLE,KY,JEFFERSON,38.24265652,-85.73123773,LONG TERM CARE
427,OUR LADY OF PEACE,LOUISVILLE,KY,JEFFERSON,38.218809,-85.71059213,PSYCHIATRIC
428,UNIVERSITY OF LOUISVILLE HOSPITAL,LOUISVILLE,KY,JEFFERSON,38.24832296,-85.74433596,GENERAL ACUTE CARE
429,PAUL B HALL REGIONAL MEDICAL CENTER,PAINTSVILLE,KY,JOHNSON,37.81551094,-82.8130513,GENERAL ACUTE CARE
430,JEFFERSON MEDICAL CENTER,RANSON,WV,JEFFERSON,39.29598914,-77.85875906,CRITICAL ACCESS
431,PLATEAU MEDICAL CENTER,OAK HILL,WV,FAYETTE,37.97127658,-81.14978059,CRITICAL ACCESS
432,MINNIE HAMILTON HEALTH CARE CENTER,GRANTSVILLE,WV,CALHOUN,38.92276007,-81.09249296,CRITICAL ACCESS
433,ST MARY'S MEDICAL CENTER,HUNTINGTON,WV,CABELL,38.43055045,-82.40041273,GENERAL ACUTE CARE
434,PRINCETON COMMUNITY HOSPITAL,PRINCETON,WV,MERCER,37.36271893,-81.11301085,GENERAL ACUTE CARE
435,PLEASANT VALLEY HOSPITAL,POINT PLEASANT,WV,MASON,38.86906541,-82.12322387,GENERAL ACUTE CARE
436,BOONE MEMORIAL HOSPITAL,MADISON,WV,BOONE,38.0482,-81.80619,CRITICAL ACCESS
437,POCAHONTAS MEMORIAL HOSPITAL,BUCKEYE,WV,POCAHONTAS,38.20082912,-80.10897840000001,CRITICAL ACCESS
438,PRESTON MEMORIAL HOSPITAL,KINGWOOD,WV,PRESTON,39.46507784,-79.68785749999999,CRITICAL ACCESS
439,WILLIAM R SHARPE JR HOSPITAL,WESTON,WV,LEWIS,39.04114927,-80.49630427,PSYCHIATRIC
440,UNIVERSITY OF KANSAS HOSPITAL TRANSPLANT CENTER,KANSAS CITY,KS,WYANDOTTE,39.0558273,-94.6089825,SPECIAL
441,ST JOSEPH HOSPITAL,BUCKHANNON,WV,UPSHUR,38.99141205,-80.2363893,CRITICAL ACCESS
442,BERKELEY MEDICAL CENTER,MARTINSBURG,WV,BERKELEY,39.47624347,-77.98023718,GENERAL ACUTE CARE
443,WEST VIRGINIA UNIVERSITY HOSPITALS,MORGANTOWN,WV,MONONGALIA,39.65442257,-79.95802214,GENERAL ACUTE CARE
444,REYNOLDS MEMORIAL HOSPITAL,GLEN DALE,WV,MARSHALL,39.94614193,-80.75243755,GENERAL ACUTE CARE
445,ST ANTHONYS MEMORIAL HOSPITAL,EFFINGHAM,IL,EFFINGHAM,39.12577602,-88.55012522,GENERAL ACUTE CARE
446,MEADOWVIEW REGIONAL MEDICAL CENTER,MAYSVILLE,KY,MASON,38.63997438,-83.80810517,GENERAL ACUTE CARE
447,ST. ELIZABETH FLORENCE,FLORENCE,KY,BOONE,39.01659182,-84.63076721,GENERAL ACUTE CARE
448,PINEVILLE COMMUNITY HOSPITAL,PINEVILLE,KY,BELL,36.76291694,-83.70776873,GENERAL ACUTE CARE
449,GENESIS HEALTH SYSTEM DBA GENESIS MEDICAL CENTER - SILVIS,SILVIS,IL,ROCK ISLAND,41.49432574,-90.41841611,GENERAL ACUTE CARE
450,TRINITY MEDICAL CENTER(WEST) DBA TRINITY ROCK ISLAND,ROCK ISLAND,IL,ROCK ISLAND,41.48261527,-90.57041813,GENERAL ACUTE CARE
451,MEMORIAL MEDICAL CENTER,SPRINGFIELD,IL,SANGAMON,39.80936884,-89.6557791,GENERAL ACUTE CARE
452,EPHRAIM MCDOWELL REGIONAL MEDICAL CENTER,DANVILLE,KY,BOYLE,37.64387331,-84.77300114,GENERAL ACUTE CARE
453,THE CARLE FOUNDATION HOSPITAL,URBANA,IL,CHAMPAIGN,40.11704176,-88.21494866,GENERAL ACUTE CARE
454,SPOONER HOSPITAL SYS,SPOONER,WI,WASHBURN,45.82559733,-91.89634651,GENERAL ACUTE CARE
455,SPRING VIEW HOSPITAL,LEBANON,KY,MARION,37.56982888,-85.26145641,GENERAL ACUTE CARE
456,OWENSBORO HEALTH MUHLENBERG COMMUNITY HOSPITAL,GREENVILLE,KY,MUHLENBERG,37.19653539,-87.18929449999999,GENERAL ACUTE CARE
457,HUTCHINGS PSYCHIATRIC CENTER,SYRACUSE,NY,ONONDAGA,43.04519375,-76.14054445,PSYCHIATRIC
458,CALDWELL MEDICAL CENTER,PRINCETON,KY,CALDWELL,37.11367431,-87.90960048,CRITICAL ACCESS
459,T J SAMSON COMMUNITY HOSPITAL,GLASGOW,KY,BARREN,37.01139239,-85.90451397,GENERAL ACUTE CARE
460,ROLLING HILLS HOSPITAL,ADA,OK,PONTOTOC,34.78459567,-96.62745078,PSYCHIATRIC
461,FAIRVIEW REGIONAL MEDICAL CENTER,FAIRVIEW,OK,MAJOR,36.27598778,-98.47452341,CRITICAL ACCESS
462,LATIMER COUNTY GENERAL HOSPITAL,WILBURTON,OK,LATIMER,34.91947628,-95.32085573,GENERAL ACUTE CARE
463,MASON DISTRICT HOSPITAL,HAVANA,IL,MASON,40.30542314,-90.0540907,CRITICAL ACCESS
464,WESTERN STATE HOSPITAL,HOPKINSVILLE,KY,CHRISTIAN,36.86466922,-87.45126672,PSYCHIATRIC
465,PIKEVILLE MEDICAL CENTER,PIKEVILLE,KY,PIKE,37.47124167,-82.52224749999999,GENERAL ACUTE CARE
466,OU MEDICAL CENTER -THE CHILDREN'S HOSPITAL,OKLAHOMA CITY,OK,OKLAHOMA,35.48165324,-97.49610501,CHILDREN
467,HANS P PETERSON MEMORIAL HOSPITAL,PHILIP,SD,HAAKON,44.03980876,-101.6714768,CRITICAL ACCESS
468,MCALESTER REGIONAL HEALTH CENTER,MCALESTER,OK,PITTSBURG,34.93688174,-95.75092529,GENERAL ACUTE CARE
469,OKLAHOMA SPINE HOSPITAL,OKLAHOMA CITY,OK,OKLAHOMA,35.61450132,-97.5833,SPECIAL
470,ST JOSEPH MEDICAL CENTER,BLOOMINGTON,IL,MCLEAN,40.48267659,-88.9555622,GENERAL ACUTE CARE
471,HAZARD ARH REGIONAL MEDICAL CENTER,HAZARD,KY,PERRY,37.27829795,-83.22788224,GENERAL ACUTE CARE
472,TUG VALLEY ARH REGIONAL MEDICAL CENTER,SOUTH WILLIAMSON,KY,PIKE,37.67651064,-82.29702272,GENERAL ACUTE CARE
473,DECATUR MEMORIAL HOSPITAL,DECATUR,IL,MACON,39.867253399999996,-88.96098295,GENERAL ACUTE CARE
474,NORTHWESTERN MEDICINE MCHENRY WOODSTOCK HUNTLEY HOSPITAL,MCHENRY,IL,MCHENRY,42.31779814,-88.27946800000001,GENERAL ACUTE CARE
475,ADVOCATE HEALTH AND HOSPITALS CORPORATION DBA ADVOCATE BROMENN HEALTHCARE,NORMAL,IL,MCLEAN,40.49697098,-88.99085,GENERAL ACUTE CARE
476,MEMORIAL HOSPITAL,NORTH CONWAY,NH,CARROLL,44.06181269,-71.1368538,GENERAL ACUTE CARE
477,CHESHIRE MEDICAL CENTER,KEENE,NH,CHESHIRE,42.948843200000006,-72.2919009,GENERAL ACUTE CARE
478,LITTLETON REGIONAL HEALTHCARE,LITTLETON,NH,GRAFTON,44.31793388,-71.82555904,GENERAL ACUTE CARE
479,ALICE PECK DAY MEMORIAL HOSPITAL,LEBANON,NH,GRAFTON,43.63844773,-72.28600257,GENERAL ACUTE CARE
480,INTEGRIS GROVE HOSPITAL,GROVE,OK,DELAWARE,36.58128735,-94.75857669,GENERAL ACUTE CARE
481,LAKES REGION GENERAL HOSPITAL,LACONIA,NH,BELKNAP,43.52855555,-71.46318101,GENERAL ACUTE CARE
482,ACH BEHAVIORAL HEALTH AND WELLNESS SERVICES,CAMBRIDGE,MD,DORCHESTER,38.54945363,-76.05799123,PSYCHIATRIC
483,INTEGRIS BASS BAPTIST HEALTH CENTER,ENID,OK,GARFIELD,36.39016529,-97.88742558,GENERAL ACUTE CARE
484,JACKSON COUNTY MEMORIAL HOSPITAL,ALTUS,OK,JACKSON,34.63523975,-99.31803877,GENERAL ACUTE CARE
485,HASKELL COUNTY COMMUNITY HOSPITAL,STIGLER,OK,HASKELL,35.26116507,-95.12875158,CRITICAL ACCESS
486,ADVENTIST MIDWEST HEALTH DBA ADVENTIST HINSDALE HOSPITAL,HINSDALE,IL,DUPAGE,41.80591716,-87.92122132,GENERAL ACUTE CARE
487,ELMHURST MEMORIAL HOSPITAL,ELMHURST,IL,DUPAGE,41.86376199,-87.93557914,GENERAL ACUTE CARE
488,CENTRAL DUPAGE HOSPITAL,WINFIELD,IL,DUPAGE,41.87352056,-88.1557587,GENERAL ACUTE CARE
489,ADVENTIST GLENOAKS,GLENDALE HEIGHTS,IL,DUPAGE,41.9148249,-88.05697653,GENERAL ACUTE CARE
490,ALLIANCEHEALTH WOODWARD,WOODWARD,OK,WOODWARD,36.43739791,-99.40033722,GENERAL ACUTE CARE
491,SUN BEHAVIORAL HEALTH,ERLANGER,KY,KENTON,39.038841,-84.594436,PSYCHIATRIC
492,SOUTHWESTERN MEDICAL CENTER,LAWTON,OK,COMANCHE,34.59263525,-98.46274019,GENERAL ACUTE CARE
493,JIM TALIAFERRO COMMUNITY MENTAL HEALTH CENTER,LAWTON,OK,COMANCHE,34.60310119,-98.43861928,PSYCHIATRIC
494,DRUMRIGHT REGIONAL HOSPITAL,DRUMRIGHT,OK,CREEK,35.99810679,-96.60596661,CRITICAL ACCESS
495,STILLWATER MEDICAL CENTER,STILLWATER,OK,PAYNE,36.115011100000004,-97.07510207,GENERAL ACUTE CARE
496,CHOCTAW MEMORIAL HOSPITAL,HUGO,OK,CHOCTAW,34.0123721,-95.49665009,GENERAL ACUTE CARE
497,NORMAN SPECIALTY HOSPITAL,NORMAN,OK,CLEVELAND,35.2323599,-97.46015234,LONG TERM CARE
498,ALLIANCEHEALTH SEMINOLE,SEMINOLE,OK,SEMINOLE,35.24497499,-96.69840924,GENERAL ACUTE CARE
499,HILLCREST HOSPITAL SOUTH,TULSA,OK,TULSA,36.0353155,-95.86355986,GENERAL ACUTE CARE
500,HILLCREST MEDICAL CENTER,TULSA,OK,TULSA,36.14716118,-95.96851083,GENERAL ACUTE CARE
501,MERCY HOSPITAL ARDMORE,ARDMORE,OK,CARTER,34.18896758,-97.14084275,GENERAL ACUTE CARE
502,MERCY HOSPITAL HEALDTON,HEALDTON,OK,CARTER,34.22286842,-97.49146648,CRITICAL ACCESS
503,AURORA MED CTR OSHKOSH,OSHKOSH,WI,WINNEBAGO,44.02774678,-88.59521837,GENERAL ACUTE CARE
504,AURORA MEDICAL CENTER,GRAFTON,WI,OZAUKEE,43.32365209,-87.92817154,GENERAL ACUTE CARE
505,LAUREATE PSYCHIATRIC CLINIC AND HOSPITAL,TULSA,OK,TULSA,36.06595501,-95.91859307,PSYCHIATRIC
506,HILLCREST HOSPITAL CLAREMORE,CLAREMORE,OK,ROGERS,36.32264454,-95.60467518,GENERAL ACUTE CARE
507,GREAT PLAINS REGIONAL MEDICAL CENTER,ELK CITY,OK,BECKHAM,35.41398306,-99.42625102,GENERAL ACUTE CARE
508,WAGONER COMMUNITY HOSPITAL,WAGONER,OK,WAGONER,35.96152396,-95.3924305,GENERAL ACUTE CARE
509,AURORA MEDICAL CENTER BAY AREA,MARINETTE,WI,MARINETTE,45.07196868,-87.61769653,GENERAL ACUTE CARE
510,MUSCOGEE (CREEK) NATION MEDICAL CENTER,OKMULGEE,OK,OKMULGEE,35.61118802,-95.952485,GENERAL ACUTE CARE
511,AURORA MEDICAL CENTER SUMMIT,SUMMIT,WI,WAUKESHA,43.06591206,-88.46757865,GENERAL ACUTE CARE
512,AURORA SHEBOYGAN MEM MED CTR,SHEBOYGAN,WI,SHEBOYGAN,43.77338685,-87.70999507,GENERAL ACUTE CARE
513,SAINT FRANCIS HOSPITAL SOUTH,TULSA,OK,TULSA,36.03358225,-95.8573201,GENERAL ACUTE CARE
514,DUNCAN REGIONAL HOSPITAL,DUNCAN,OK,STEPHENS,34.52031753,-97.975948,GENERAL ACUTE CARE
515,MERCY HOSPITAL ADA,ADA,OK,PONTOTOC,34.77827025,-96.63336758,GENERAL ACUTE CARE
516,FREDERICK MEDICAL CLINIC,FREDERICK,OK,TILLMAN,34.40377445,-99.0136548,GENERAL ACUTE CARE
517,STARR REGIONAL MEDICAL CENTER ETOWAH,ETOWAH,TN,MCMINN,35.34509862,-84.52271936,GENERAL ACUTE CARE
518,ANDROSCOGGIN VALLEY HOSPITAL,BERLIN,NH,COOS,44.4869509,-71.1552539,GENERAL ACUTE CARE
519,WEEKS MEDICAL CENTER,LANCASTER,NH,COOS,44.48623037,-71.55433993,GENERAL ACUTE CARE
520,ST FRANCIS HOSPITAL,LITCHFIELD,IL,MONTGOMERY,39.18121356,-89.63905575,CRITICAL ACCESS
521,OSF HOLY FAMILY MEDICAL CENTER,MONMOUTH,IL,WARREN,40.92225293,-90.65830134,CRITICAL ACCESS
522,MORRISON COMMUNITY HOSPITAL,MORRISON,IL,WHITESIDE,41.80893488,-89.95787808,CRITICAL ACCESS
523,SARAH D CULBERTSON MEMORIAL HOSPITAL,RUSHVILLE,IL,SCHUYLER,40.11816279999999,-90.5643155,CRITICAL ACCESS
524,ABRAHAM LINCOLN MEMORIAL HOSPITAL,LINCOLN,IL,LOGAN,40.1537865,-89.38989355,CRITICAL ACCESS
525,MASSAC MEMORIAL HOSPITAL,METROPOLIS,IL,MASSAC,37.16637476,-88.74004867,CRITICAL ACCESS
526,PARIS COMMUNITY HOSPITAL,PARIS,IL,EDGAR,39.60684004,-87.6776547,CRITICAL ACCESS
527,CENTRAL PENINSULA GENERAL HOSPITAL,SOLDOTNA,AK,KENAI PENINSULA,60.49316905,-151.077827,GENERAL ACUTE CARE
528,ATLANTA VA HEALTH MEDICAL CENTER,DECATUR,GA,DEKALB,33.801860999999995,-84.311425,MILITARY
529,PIEDMONT ATHENS REGIONAL MED CENTER,ATHENS,GA,CLARKE,33.96129247,-83.39794507,GENERAL ACUTE CARE
530,BECKLEY ARH HOSPITAL,BECKLEY,WV,RALEIGH,37.798832700000006,-81.16818375,GENERAL ACUTE CARE
531,OWENSBORO HEALTH,OWENSBORO,KY,DAVIESS,37.766669,-87.10083399999999,GENERAL ACUTE CARE
532,FAIRBANKS MEMORIAL HOSPITAL,FAIRBANKS,AK,FAIRBANKS NORTH STAR,64.83174471,-147.73939280000002,GENERAL ACUTE CARE
533,MAT-SU REGIONAL MEDICAL CENTER,PALMER,AK,MATANUSKA-SUSITNA,61.56289358,-149.2583112,GENERAL ACUTE CARE
534,PROVIDENCE VALDEZ MEDICAL CENTER,VALDEZ,AK,VALDEZ-CORDOVA,61.13653378,-146.3465517,GENERAL ACUTE CARE
535,MANIILAQ MEDICAL CENTER,KOTZEBUE,AK,NORTHWEST ARCTIC,66.89600162,-162.5868263,CRITICAL ACCESS
536,MT EDGECUMBE HOSPITAL - SEARHC,SITKA,AK,SITKA,57.05156556,-135.3548767,CRITICAL ACCESS
537,JACKSON COUNTY HOSPITAL,GAINESBORO,TN,JACKSON,36.34880706,-85.65624427,GENERAL ACUTE CARE
538,MAURY REGIONAL HOSPITAL,COLUMBIA,TN,MAURY,35.60716387,-87.06689111,GENERAL ACUTE CARE
539,WEST TENNESSEE HEALTHCARE NORTH HOSPITAL,JACKSON,TN,MADISON,35.68444711,-88.85404848,GENERAL ACUTE CARE
540,GREAT FALLS CLINIC MEDICAL CENTER,GREAT FALLS,MT,CASCADE,47.48935452,-111.29135259999998,GENERAL ACUTE CARE
541,WYOMING STATE HOSPITAL,EVANSTON,WY,UINTA,41.26382872,-110.94709820000001,PSYCHIATRIC
542,HENRY COUNTY MEDICAL CENTER,PARIS,TN,HENRY,36.29654269,-88.31030459,GENERAL ACUTE CARE
543,EPHRAIM MCDOWELL JAMES B. HAGGIN MEMORIAL HOSPITAL,HARRODSBURG,KY,MERCER,37.75706388,-84.84873911,CRITICAL ACCESS
544,METHODIST MEDICAL CENTER OF OAK RIDGE,OAK RIDGE,TN,ANDERSON,36.02454511,-84.24508553,GENERAL ACUTE CARE
545,ERLANGER BLEDSOE,PIKEVILLE,TN,BLEDSOE,35.62068597,-85.19086883,GENERAL ACUTE CARE
546,STARR REGIONAL MEDICAL CENTER,ATHENS,TN,MCMINN,35.44081499,-84.60735287,GENERAL ACUTE CARE
547,TRISTAR SKYLINE MEDICAL CENTER,NASHVILLE,TN,DAVIDSON,36.24534093,-86.74961898,GENERAL ACUTE CARE
548,KINDRED HOSPITAL - CHATTANOOGA,CHATTANOOGA,TN,HAMILTON,35.04757814,-85.30770622,LONG TERM CARE
549,ERLANGER MEDICAL CENTER,CHATTANOOGA,TN,HAMILTON,35.04889413,-85.29004745,GENERAL ACUTE CARE
550,NORTHCREST MEDICAL CENTER,SPRINGFIELD,TN,ROBERTSON,36.47848008,-86.88690193,GENERAL ACUTE CARE
551,JELLICO MEDICAL CENTER,JELLICO,TN,CAMPBELL,36.57370136,-84.12854359,GENERAL ACUTE CARE
552,JOHNSON CITY MEDICAL CENTER,JOHNSON CITY,TN,WASHINGTON,36.30784310000001,-82.38456264,GENERAL ACUTE CARE
553,WILLIAMSON MEDICAL CENTER,FRANKLIN,TN,WILLIAMSON,35.91616226,-86.81925004,GENERAL ACUTE CARE
554,"RIVERSIDE HOSPITAL OF LOUISIANA, INC.",ALEXANDRIA,LA,RAPIDES,31.301332000000002,-92.487302,LONG TERM CARE
555,RHEA MEDICAL CENTER,DAYTON,TN,RHEA,35.52910134,-84.98177946,GENERAL ACUTE CARE
556,SAINT THOMAS RUTHERFORD HOSPITAL,MURFREESBORO,TN,RUTHERFORD,35.86057912,-86.42503138,GENERAL ACUTE CARE
557,TENNOVA HEALTHCARE PHYSICIANS REGIONAL MEDICAL CENTER,KNOXVILLE,TN,KNOX,35.99238358,-83.92681776,GENERAL ACUTE CARE
558,BRISTOL REGIONAL MEDICAL CENTER,BRISTOL,TN,SULLIVAN,36.58551645,-82.25692327,GENERAL ACUTE CARE
559,HANCOCK COUNTY HOSPITAL,SNEEDVILLE,TN,HANCOCK,36.53333298,-83.21510814,CRITICAL ACCESS
560,HOLSTON VALLEY MEDICAL CENTER,KINGSPORT,TN,SULLIVAN,36.55410317,-82.55460725,GENERAL ACUTE CARE
561,COFFEY COUNTY HOSPITAL,BURLINGTON,KS,COFFEY,38.20227177,-95.73769964,GENERAL ACUTE CARE
562,STATEN ISLAND UNIVERSITY HOSPITAL - SOUTH,STATEN ISLAND,NY,RICHMOND,40.51656928,-74.19646609,GENERAL ACUTE CARE
564,OCHSNER REHABILITATION HOSPITAL,JEFFERSON,LA,JEFFERSON,29.961542200000004,-90.15422149999999,REHABILITATION
565,SOUTH CENTRAL KS MED CENTER,ARKANSAS CITY,KS,COWLEY,37.13299682,-97.03850329,GENERAL ACUTE CARE
566,WILSON MEDICAL CENTER,NEODESHA,KS,WILSON,37.40957059,-95.70833215,GENERAL ACUTE CARE
567,THE UNIVERSITY OF KANSAS HEALTH SYSTEM GREAT BEND CAMPUS,GREAT BEND,KS,BARTON,38.35616569,-98.79071269,GENERAL ACUTE CARE
568,COMMUNITY HOSPITAL ONAGA AND ST MARYS CAMPUS,ONAGA,KS,POTTAWATOMIE,39.4959886,-96.17142807,GENERAL ACUTE CARE
569,AVAIL HEALTH LAKE CHARLES HOSPITAL,LAKE CHARLES,LA,CALCASIEU,30.19037837,-93.25037016,GENERAL ACUTE CARE
578,UTMB ANGLETON-DANBURY MEDICAL CENTER,ANGLETON,TX,BRAZORIA,29.1838554,-95.40543329,GENERAL ACUTE CARE
579,ST. DAVID'S MEDICAL CENTER,AUSTIN,TX,TRAVIS,30.28989221,-97.72604637,GENERAL ACUTE CARE
580,MEDICAL CITY OF ARLINGTON,ARLINGTON,TX,TARRANT,32.69232531,-97.11271638,GENERAL ACUTE CARE
581,TEXAS HEALTH HARRIS METHODIST HOSPITAL AZLE,AZLE,TX,TARRANT,32.88096648,-97.53309865,GENERAL ACUTE CARE
582,HOUSTON METHODIST BAYTOWN HOSPITAL,BAYTOWN,TX,HARRIS,29.76911627,-94.97971661,GENERAL ACUTE CARE
583,MEMORIAL HERMANN ORTHOPEDIC AND SPINE HOSPITAL,BELLAIRE,TX,HARRIS,29.72380542,-95.46121904,GENERAL ACUTE CARE
584,BAYSIDE COMMUNITY HOSPITAL,ANAHUAC,TX,CHAMBERS,29.752557399999997,-94.68744667,GENERAL ACUTE CARE
585,NORTH AUSTIN MEDICAL CENTER,AUSTIN,TX,TRAVIS,30.41148803,-97.7062274,GENERAL ACUTE CARE
586,ST MARYS HOSPITAL,CENTRALIA,IL,MARION,38.53028143,-89.11720631,GENERAL ACUTE CARE
589,UNION CORRECTIONAL INSTITUTE HOSPITAL,RAIFORD,FL,UNION,30.06705191,-82.19385038,SPECIAL
590,WINNIE PALMER HOSPITAL FOR WOMEN & BABIES,ORLANDO,FL,ORANGE,28.52433987,-81.3791536,GENERAL ACUTE CARE
591,WEST FLORIDA REHABILITATION INSTITUTE,PENSACOLA,FL,ESCAMBIA,30.51634012,-87.21686302,REHABILITATION
592,ST JOSEPH'S WOMEN'S HOSPITAL,TAMPA,FL,HILLSBOROUGH,27.98023088,-82.49220872,GENERAL ACUTE CARE
593,EASTLAND MEMORIAL HOSPITAL,EASTLAND,TX,EASTLAND,32.39982064,-98.82114248,GENERAL ACUTE CARE
594,THE HOSPITALS OF PROVIDENCE EAST CAMPUS,EL PASO,TX,EL PASO,31.79037063,-106.2645055,GENERAL ACUTE CARE
595,FREESTONE MEDICAL CENTER,FAIRFIELD,TX,FREESTONE,31.72534374,-96.17059823,GENERAL ACUTE CARE
596,CONNALLY MEMORIAL MEDICAL CENTER,FLORESVILLE,TX,WILSON,29.15850063,-98.17497259,GENERAL ACUTE CARE
597,BAYLOR SURGICAL HOSPITAL AT FORT WORTH,FORT WORTH,TX,TARRANT,32.73685764,-97.34897946,GENERAL ACUTE CARE
598,BAYLOR SCOTT & WHITE MEDICAL CENTER - FRISCO,FRISCO,TX,COLLIN,33.10449021,-96.83782532,GENERAL ACUTE CARE
599,NORTH TEXAS MEDICAL CENTER,GAINESVILLE,TX,COOKE,33.64636264,-97.1627319,GENERAL ACUTE CARE
600,HILL COUNTRY MEMORIAL HOSPITAL,FREDERICKSBURG,TX,GILLESPIE,30.262519,-98.88184327,GENERAL ACUTE CARE
601,HUNT REGIONAL MEDICAL CENTER GREENVILLE,GREENVILLE,TX,HUNT,33.12231408,-96.12397074,GENERAL ACUTE CARE
602,MEMORIAL HOSPITAL,GRAPEVINE,TX,GONZALES,29.51759211,-97.42934318,GENERAL ACUTE CARE
603,GRAHAM REGIONAL MEDICAL CENTER,GRAPEVINE,TX,YOUNG,33.08958211,-98.58396742,GENERAL ACUTE CARE
604,LAVACA MEDICAL CENTER,HARLINGEN,TX,LAVACA,29.45740267,-96.93821283,GENERAL ACUTE CARE
605,MEDINA REGIONAL HOSPITAL,HOUSTON,TX,MEDINA,29.33462296,-99.13448254,GENERAL ACUTE CARE
606,CHI ST LUKES HEALTH BAYLOR COLLEGE OF MEDICINE MEDICAL CENTER,GRANBURY,TX,HARRIS,29.70773116,-95.40044497,GENERAL ACUTE CARE
607,MEMORIAL HERMANN NORTHEAST HOSPITAL,HUMBLE,TX,HARRIS,29.99551204,-95.27612889,GENERAL ACUTE CARE
608,CHRISTUS JASPER MEMORIAL HOSPITAL,JASPER,TX,JASPER,30.90789453,-94.00955331,GENERAL ACUTE CARE
609,KIMBLE HOSPITAL,JUNCTION,TX,KIMBLE,30.49847308,-99.78056091,GENERAL ACUTE CARE
610,MEMORIAL HERMANN KATY HOSPITAL,KATY,TX,HARRIS,29.787311,-95.78625453,GENERAL ACUTE CARE
611,PETERSON REGIONAL MEDICAL CENTER,KERRVILLE,TX,KERR,30.04346599,-99.1528689,GENERAL ACUTE CARE
612,ASCENSION SETON MEDICAL CENTER HAYS,KYLE,TX,HAYS,30.00840999,-97.85297745,GENERAL ACUTE CARE
613,COVENANT HOSPITAL LEVELLAND,LEVELLAND,TX,HOCKLEY,33.57268652,-102.3688972,GENERAL ACUTE CARE
614,BAYLOR SCOTT AND WHITE HEALTHCARE - LLANO,LLANO,TX,LLANO,30.74264962,-98.67765575,GENERAL ACUTE CARE
615,CHRISTUS GOOD SHEPHERD MEDICAL CENTER - LONGVIEW,LONGVIEW,TX,GREGG,32.50074986,-94.72985399,GENERAL ACUTE CARE
616,METHODIST MCKINNEY HOSPITAL,MCKINNEY,TX,COLLIN,33.17652529,-96.7222958,GENERAL ACUTE CARE
617,MISSION REGIONAL MEDICAL CENTER,MISSION,TX,HIDALGO,26.1963482,-98.31431722,GENERAL ACUTE CARE
618,TITUS REGIONAL MEDICAL CENTER,MOUNT PLEASANT,TX,TITUS,33.17559939,-94.97117494,GENERAL ACUTE CARE
619,HOUSTON METHODIST CLEAR LAKE HOSPITAL,NASSAU BAY,TX,HARRIS,29.54924852,-95.08676363,GENERAL ACUTE CARE
620,NACOGDOCHES MEDICAL CENTER,NACOGDOCHES,TX,NACOGDOCHES,31.65314431,-94.65387312,GENERAL ACUTE CARE
621,SAINT CLARE'S HOSPITAL,ALTON,IL,MADISON,38.89080496,-90.17092928,GENERAL ACUTE CARE
622,ODESSA REGIONAL MEDICAL CENTER SOUTH CAMPUS,ODESSA,TX,ECTOR,31.85173303,-102.3595728,GENERAL ACUTE CARE
623,PALESTINE REGIONAL MEDICAL CENTER,PALESTINE,TX,ANDERSON,31.73259668,-95.62722756,GENERAL ACUTE CARE
624,PARIS REGIONAL MEDICAL CENTER - SOUTH CAMPUS,PARIS,TX,LAMAR,33.6596692,-95.54722893,GENERAL ACUTE CARE
625,GOOD SHEPHERD MEDICAL CENTER - LINDEN,LINDEN,TX,CASS,33.01398751,-94.36388358,GENERAL ACUTE CARE
626,PAMPA REGIONAL MEDICAL CENTER,PAMPA,TX,GRAY,35.57247216,-100.96479649999999,GENERAL ACUTE CARE
627,HCA HOUSTON HEALTHCARE SOUTHEAST,PASADENA,TX,HARRIS,29.66106027,-95.1838147,GENERAL ACUTE CARE
628,SURGERY SPECIALTY HOSPITALS OF AMERICA SOUTHEAST HOUSTON,PASADENA,TX,HARRIS,29.65912193,-95.17795651,GENERAL ACUTE CARE
629,ST. LUKE'S PATIENTS MEDICAL CENTER,PASADENA,TX,HARRIS,29.64109794,-95.16221440000001,GENERAL ACUTE CARE
630,COVENANT HOSPITAL PLAINVIEW,PLAINVIEW,TX,HALE,34.20675672,-101.7329457,GENERAL ACUTE CARE
631,REEVES COUNTY HOSPITAL,PECOS,TX,REEVES,31.40118876,-103.51402979999999,GENERAL ACUTE CARE
632,TEXAS HEALTH PRESBYTERIAN HOSPITAL PLANO,PLANO,TX,COLLIN,33.04366355,-96.83647095,GENERAL ACUTE CARE
633,FRIO REGIONAL HOSPITAL,PEARSALL,TX,FRIO,28.89630465,-99.1172572,GENERAL ACUTE CARE
634,METHODIST RICHARDSON MEDICAL CENTER,RICHARDSON,TX,DALLAS,32.97431653,-96.72660111,GENERAL ACUTE CARE
635,OAKBEND MEDICAL CENTER,RICHMOND,TX,FORT BEND,29.57632884,-95.77093702,GENERAL ACUTE CARE
636,BAYLOR SCOTT AND WHITE HOSPITAL - ROUND ROCK,ROUND ROCK,TX,WILLIAMSON,30.56339584,-97.68478229,GENERAL ACUTE CARE
637,BAYLOR SCOTT & WHITE MEDICAL CENTER - LAKE POINTE,ROWLETT,TX,ROCKWALL,32.91801933,-96.50871907,GENERAL ACUTE CARE
638,VALLEY WEST COMMUNITY HOSPITAL,SANDWICH,IL,DEKALB,41.65719013,-88.62073482,CRITICAL ACCESS
639,SOUTHWEST GENERAL HOSPITAL,SAN ANTONIO,TX,BEXAR,29.35353715,-98.54470772,GENERAL ACUTE CARE
640,FOUNDATION SURGICAL HOSPITAL OF SAN ANTONIO,SAN ANTONIO,TX,BEXAR,29.53024011,-98.58975132,GENERAL ACUTE CARE
641,METHODIST STONE OAK HOSPITAL,SAN ANTONIO,TX,BEXAR,29.61586221,-98.47443477,GENERAL ACUTE CARE
642,METHODIST TEXSAN HOSPITAL,SAN ANTONIO,TX,BEXAR,29.48986399,-98.54757258,GENERAL ACUTE CARE
643,BAPTIST HEALTH MADISONVILLE,MADISONVILLE,KY,HOPKINS,37.34059784,-87.49334945,GENERAL ACUTE CARE
644,ADVENTIST HEALTHCARE SHADY GROVE MEDICAL CENTER,ROCKVILLE,MD,MONTGOMERY,39.09784414,-77.19790423,GENERAL ACUTE CARE
645,WILSON N JONES REGIONAL MEDICAL CENTER,SHERMAN,TX,GRAYSON,33.63709739,-96.62382165,GENERAL ACUTE CARE
646,MEMORIAL HERMANN FIRST COLONY HOSPITAL,SUGAR LAND,TX,FORT BEND,29.59811706,-95.62434849,GENERAL ACUTE CARE
647,MEMORIAL HERMANN THE WOODLANDS HOSPITAL,THE WOODLANDS,TX,MONTGOMERY,30.17433545,-95.45434200000001,GENERAL ACUTE CARE
648,HCA HOUSTON HEALTHCARE TOMBALL,TOMBALL,TX,HARRIS,30.08730408,-95.62369558,GENERAL ACUTE CARE
649,EAST TEXAS MEDICAL CENTER TRINITY,TRINITY,TX,TRINITY,30.95686367,-95.38104923,GENERAL ACUTE CARE
650,UVALDE MEMORIAL HOSPITAL,UVALDE,TX,UVALDE,29.21411967,-99.76783721,GENERAL ACUTE CARE
651,ASCENSION PROVIDENCE HEALTH CENTER,WACO,TX,MCLENNAN,31.51425066,-97.19949097,GENERAL ACUTE CARE
652,HOUSTON PHYSICIANS' HOSPITAL,WEBSTER,TX,HARRIS,29.53384927,-95.12619308,GENERAL ACUTE CARE
653,PARKVIEW HOSPITAL,WHEELER,TX,WHEELER,35.43933961,-100.2703597,GENERAL ACUTE CARE
654,NORTH RUNNELS HOSPITAL,WINTERS,TX,RUNNELS,31.94922151,-99.95913544,GENERAL ACUTE CARE
655,BAYLOR MEDICAL CENTER AT UPTOWN,DALLAS,TX,DALLAS,32.80424638,-96.79495495,GENERAL ACUTE CARE
656,BAYLOR SCOTT & WHITE MEDICAL CENTER - MCKINNEY,MCKINNEY,TX,COLLIN,33.22097161,-96.68260102,GENERAL ACUTE CARE
657,HOUSTON METHODIST WEST HOSPITAL,HOUSTON,TX,HARRIS,29.78715662,-95.69782808,GENERAL ACUTE CARE
658,CHRISTUS ST VINCENT REGIONAL MEDICAL CENTER,SANTA FE,NM,SANTA FE,35.65944099,-105.9457805,GENERAL ACUTE CARE
659,HOUSTON METHODIST HOSPTIAL,HOUSTON,TX,HARRIS,29.71052314,-95.39893888,GENERAL ACUTE CARE
660,HOUSTON METHODIST WILLOWBROOK HOSPITAL,HOUSTON,TX,HARRIS,29.96646877,-95.55114453,GENERAL ACUTE CARE
661,DALLAS MEDICAL CENTER,DALLAS,TX,DALLAS,32.91526053,-96.86979587,GENERAL ACUTE CARE
662,RENAISSANCE HOSPITAL TERRELL,TERRELL,TX,KAUFMAN,32.71061357,-96.27915304,GENERAL ACUTE CARE
663,BAYLOR SCOTT & WHITE EMERGENCY HOSPITAL AT CEDAR PARK,CEDAR PARK,TX,WILLIAMSON,30.523313899999998,-97.81984631,GENERAL ACUTE CARE
664,BAYLOR SCOTT & WHITE MEDICAL CENTER - LAKEWAY,AUSTIN,TX,TRAVIS,30.33294103,-97.97152991,GENERAL ACUTE CARE
665,BAYLOR SCOTT & WHITE MEDICAL CENTER - HILLCREST,WACO,TX,MCLENNAN,31.48918306,-97.15754299,GENERAL ACUTE CARE
666,TEXAS HEALTH HARRIS METHODIST HOSPITAL ALLIANCE,FORT WORTH,TX,TARRANT,32.93068061,-97.30991228,GENERAL ACUTE CARE
667,ST DAVID'S GEORGETOWN HOSPITAL,GEORGETOWN,TX,WILLIAMSON,30.62609475,-97.68871248,GENERAL ACUTE CARE
668,ST LUKE'S BAPTIST HOSPITAL,SAN ANTONIO,TX,BEXAR,29.51254941,-98.57491087,GENERAL ACUTE CARE
669,HARRIS HEALTH SYSTEM LYNDON B JOHNSON GENERAL HOSP,HOUSTON,TX,HARRIS,29.81193328,-95.3118817,GENERAL ACUTE CARE
670,EAST HOUSTON REGIONAL MED CTR,HOUSTON,TX,HARRIS,29.77236697,-95.19334666,GENERAL ACUTE CARE
671,BAPTIST EMERGENCY HOSPITAL - ZARZAMORA,SAN ANTONIO,TX,BEXAR,29.35182455,-98.53302117,GENERAL ACUTE CARE
672,MEMORIAL HERMANN PEARLAND HOSPITAL,PEARLAND,TX,BRAZORIA,29.56350045,-95.38867972,GENERAL ACUTE CARE
673,BAYLOR SCOTT & WHITE MEDICAL CENTER - MARBLE FALLS,MARBLE FALLS,TX,BURNET,30.51281125,-98.30453796,GENERAL ACUTE CARE
674,EMINENT MEDICAL CENTER,RICHARDSON,TX,COLLIN,32.99919628,-96.75579418,GENERAL ACUTE CARE
675,MEMORIAL HOSPITAL FOR CANCER AND ALLIED DISEASES,NEW YORK,NY,NEW YORK,40.76427432,-73.95659552,SPECIAL
676,SCENIC MOUNTAIN MEDICAL CENTER,BIG SPRING,TX,HOWARD,32.23637785,-101.4916755,GENERAL ACUTE CARE
677,LEGENT HOSPITAL FOR SPECIAL SURGERY,PLANO,TX,COLLIN,33.00140185,-96.77180156,GENERAL ACUTE CARE
678,BAPTIST EMERGENCY HOSPITAL,SCHERTZ,TX,COMAL,29.59427531,-98.29008482,GENERAL ACUTE CARE
679,RESOLUTE HEALTH,NEW BRAUNFELS,TX,COMAL,29.72200582,-98.06999717,GENERAL ACUTE CARE
680,FIRST BAPTIST MEDICAL CENTER,DALLAS,TX,DALLAS,32.88843795,-96.7665543,GENERAL ACUTE CARE
681,STEWARD HILLSIDE REHABILITATION HOSPITAL,WARREN,OH,TRUMBULL,41.25075354,-80.73246209999999,REHABILITATION
682,SELECT SPECIALTY HOSPITAL - YOUNGSTOWN,YOUNGSTOWN,OH,MAHONING,41.11393419,-80.65840638,LONG TERM CARE
683,RIDGEVIEW HOSPITAL,MIDDLE POINT,OH,VAN WERT,40.87740052,-84.47896695,PSYCHIATRIC
684,BAYLOR SCOTT & WHITE MEDICAL CENTER AT WAXAHACHIE,WAXAHACHIE,TX,ELLIS,32.42751892,-96.85791008,GENERAL ACUTE CARE
685,MEMORIAL HERMANN SURGICAL HOSPITAL FIRST COLONY,SUGAR LAND,TX,FORT BEND,29.58990316,-95.63643615,GENERAL ACUTE CARE
686,BAY AREA REGIONAL MEDICAL CENTER,WEBSTER,TX,HARRIS,29.54477125,-95.12586399,GENERAL ACUTE CARE
687,SOUTH TEXAS SURGICAL HOSPITAL,CORPUS CHRISTI,TX,NUECES,27.68604136,-97.37554712,GENERAL ACUTE CARE
688,FIRST TEXAS HOSPITAL,HOUSTON,TX,HARRIS,30.0005391,-95.56274483,GENERAL ACUTE CARE
689,HARRIS HEALTH SYSTEM QUENTIN MEASE HOSPITAL,HOUSTON,TX,HARRIS,29.71103908,-95.35980642,GENERAL ACUTE CARE
690,ST CHARLES - MADRAS,MADRAS,OR,JEFFERSON,44.63787373,-121.1207254,GENERAL ACUTE CARE
691,FAITH COMMUNITY HOSPITAL,JACKSBORO,TX,JACK,33.23066769,-98.16693865,GENERAL ACUTE CARE
692,THE CORPUS CHRISTI MEDICAL CENTER - NORTHWEST,CORPUS CHRISTI,TX,NUECES,27.85491733,-97.63542317,GENERAL ACUTE CARE
693,REAGAN MEMORIAL HOSPITAL,BIG LAKE,TX,REAGAN,31.20401254,-101.46101759999999,GENERAL ACUTE CARE
694,MEDICAL CITY OF ALLIANCE,FORT WORTH,TX,TARRANT,32.90029252,-97.31392872,GENERAL ACUTE CARE
695,JOHNSTON MEMORIAL HOSPITAL,ABINGDON,VA,WASHINGTON,36.72291339,-81.91212146,GENERAL ACUTE CARE
696,ST. LUKE'S REHABILITATION,BOISE,ID,ADA,43.61558765,-116.1915765,REHABILITATION
697,ST. LUKE'S WOOD RIVER MEDICAL CENTER,KETCHUM,ID,BLAINE,43.64832025,-114.350021,SPECIAL
698,FRANCISCAN ST FRANCIS HEALTH - CARMEL,CARMEL,IN,HAMILTON,39.96803205,-86.15870702,GENERAL ACUTE CARE
699,ESKENAZI HEALTH,INDIANAPOLIS,IN,MARION,39.77788276,-86.18398589,GENERAL ACUTE CARE
700,LAKE GRANBURY MEDICAL CENTER,GREENVILLE,TX,HOOD,32.43248931,-97.8038485,GENERAL ACUTE CARE
701,LIMESTONE MEDICAL CENTER,HAMLIN,TX,LIMESTONE,31.53271119,-96.53121111,CRITICAL ACCESS
702,NAVAL MEDICAL CENTER PORTSMOUTH,PORTSMOUTH,VA,PORTSMOUTH,36.84541393,-76.30576791,MILITARY
703,LAMB HEALTHCARE CENTER,LITTLEFIELD,TX,LAMB,33.91170687,-102.34429490000001,GENERAL ACUTE CARE
704,UNIVERSITY OF MINNESOTA MEDICAL CENTER-FAIRVIEW-EAST BANK-ER,MINNEAPOLIS,MN,HENNEPIN,44.97237352,-93.23194052,GENERAL ACUTE CARE
705,EDWARD PLAINFIELD,PLAINFIELD,IL,WILL,41.65282059,-88.21737981,GENERAL ACUTE CARE
706,TEXAS HEALTH PRESBYTERIAN HOSPITAL ROCKWALL,ROCKWALL,TX,ROCKWALL,32.8842895,-96.46622551,GENERAL ACUTE CARE
707,VA MEDICAL CENTER - KANSAS CITY,KANSAS CITY,MO,JACKSON,39.0640641,-94.52641440000001,MILITARY
708,LAWTON INDIAN HOSPITAL,LAWTON,OK,COMANCHE,34.62759832,-98.38424195,CRITICAL ACCESS
709,VA MEDICAL CENTER - OMAHA,OMAHA,NE,DOUGLAS,41.24253129,-95.9743765,MILITARY
710,ATRIUM MEDICAL CENTER AT CORINTH,CORINTH,TX,DENTON,33.15366153,-97.05667447,LONG TERM CARE
711,KINDRED HOSPITAL HOUSTON NORTHWEST,HOUSTON,TX,HARRIS,29.92440962,-95.58824613,LONG TERM CARE
712,HCA HOUSTON HEATHCARE SPECIALTY HOSPITAL,HOUSTON,TX,HARRIS,29.72323923,-95.38702269,LONG TERM CARE
713,SE TEXAS ER AND HOSPITAL,HUMBLE,TX,HARRIS,29.99867547,-95.27622266,LONG TERM CARE
714,PAM SPECIALTY HOSPITAL OF LULING,LULING,TX,CALDWELL,29.67408592,-97.6550844,LONG TERM CARE
715,DUBUIS HOSPITAL OF PARIS,PARIS,TX,LAMAR,33.68784764,-95.54823349,LONG TERM CARE
716,KINDRED HOSPITAL - SAN ANTONIO,SAN ANTONIO,TX,BEXAR,29.52248579,-98.55637881,LONG TERM CARE
717,KINDRED HOSPITAL SUGAR LAND,SUGAR LAND,TX,FORT BEND,29.60023248,-95.63826118,LONG TERM CARE
718,ATRIUM MEDICAL CENTER,STAFFORD,TX,FORT BEND,29.64684751,-95.58827701,LONG TERM CARE
719,PAM SPECIALTY HOSPITAL OF VICTORIA NORTH,VICTORIA,TX,VICTORIA,28.85499709,-97.02196107,LONG TERM CARE
720,BAYLOR SCOTT & WHITE CONTINUING CARE HOSPITAL,TEMPLE,TX,BELL,31.11828493,-97.39929271,LONG TERM CARE
721,"GEORGE H. O'BRIEN, JR. VA MEDICAL CENTER",BIG SPRING,TX,HOWARD,32.23103861,-101.4727695,MILITARY
722,ALLEGIANCE HEALTH CENTER PERMIAN BASIN,MIDLAND,TX,MIDLAND,31.98171367,-102.154371,LONG TERM CARE
723,AURORA SINAI MEDICAL CENTER,MILWAUKEE,WI,MILWAUKEE,43.04249014,-87.92781090000001,GENERAL ACUTE CARE
724,VA HEALTH CARE CENTER (HCC) AT HARLINGEN,HARLINGEN,TX,CAMERON,26.17104215,-97.66727696,MILITARY
725,NIX HEALTH CARE SYSTEM,SAN ANTONIO,TX,BEXAR,29.42567199,-98.489416,GENERAL ACUTE CARE
726,KAHUKU MEDICAL CENTER,KAHUKU,HI,HONOLULU,21.67656379,-157.9542967,LONG TERM CARE
727,KINGWOOD PINES HOSPITAL,KINGWOOD,TX,HARRIS,30.04449762,-95.22998414,PSYCHIATRIC
728,SUNRISE CANYON,LUBBOCK,TX,LUBBOCK,33.57294164,-101.8075028,PSYCHIATRIC
729,AUSTIN OAKS HOSPITAL,AUSTIN,TX,TRAVIS,30.21159597,-97.79237579,PSYCHIATRIC
730,DALLAS BEHAVIORAL HEALTHCARE HOSPITAL LLC,DE SOTO,TX,DALLAS,32.6424243,-96.87476008,PSYCHIATRIC
731,OCEANS BEHAVIORAL HOSPITAL OF THE PERMIAN BASIN,MIDLAND,TX,MIDLAND,31.92287504,-102.22216479999999,PSYCHIATRIC
732,PALMS BEHAVIORAL HEALTH,HARLINGEN,TX,CAMERON,26.16357422,-97.67216229,PSYCHIATRIC
733,BEHAVIORAL MEDICINE AT RENAISSANCE,EDINBURG,TX,HIDALGO,26.25310267,-98.20115591,PSYCHIATRIC
734,THE PAVILIION,AMARILLO,TX,POTTER,35.20065636,-101.9185355,PSYCHIATRIC
735,UT HEALTH EAST TEXAS BEHAVIORAL HEALTH CENTER,TYLER,TX,SMITH,32.31119781,-95.2487673,PSYCHIATRIC
736,GEORGETOWN BEHAVIORAL HEALTH INSTITUE,GEORGETOWN,TX,WILLIAMSON,30.61490177,-97.68063183,PSYCHIATRIC
737,NORTH HAWAII COMMUNITY HOSPITAL,KAMUELA,HI,HAWAII,20.0223089,-155.6644209,GENERAL ACUTE CARE
738,CHI ST JOSEPH REHAB HOSPITAL,BRYAN,TX,BRAZOS,30.65993299,-96.3507145,REHABILITATION
739,ENCOMPASS HEALTH REHABILITATION HOSPITAL OF DALLAS,DALLAS,TX,DALLAS,32.90107033,-96.77052204,REHABILITATION
740,HEALTHSOUTH REHABILITATION HOSPITAL OF FORTH WORTH,FORT WORTH,TX,TARRANT,32.747384000000004,-97.3395734,REHABILITATION
741,ENCOMPASS HEALTH REHABILITATION OF CITY VIEW,FORT WORTH,TX,TARRANT,32.6620118,-97.41279008,REHABILITATION
742,ENCOMPASS HEALTH REHABILITATION HOSPITAL OF HUMBLE,HUMBLE,TX,HARRIS,29.99373522,-95.27732929999999,REHABILITATION
743,CHRISTUS TRINITY MOTHER FRANCES REHABILITATION HOSPITAL,TYLER,TX,SMITH,32.31487664,-95.27777009999998,REHABILITATION
744,KINDRED REHABILITATION HOSPITAL CLEAR LAKE,WEBSTER,TX,HARRIS,29.54759011,-95.11754744,REHABILITATION
745,ENCOMPASS HEALTH REHABILITATION HOSPITAL OF WICHITA FALLS,WICHITA FALLS,TX,WICHITA,33.87387587,-98.48467593,REHABILITATION
746,ICARE REHABILTATION HOSPITAL,FLOWER MOUND,TX,DENTON,33.03536409,-97.07726192,REHABILITATION
747,BAYLOR INSTITUTE FOR REHABILITATION AT NORTHWEST DALLAS,DALLAS,TX,DALLAS,32.82601681,-96.86986391,REHABILITATION
748,PAM REHABILITATION HOSPITAL OF VICTORIA,VICTORIA,TX,VICTORIA,28.855783600000002,-97.02265217,REHABILITATION
749,LAS PALMAS REHABILITATION HOSPITAL,EL PASO,TX,EL PASO,31.78905323,-106.508826,REHABILITATION
750,REBA MCENTIRE CENTER FOR REHABILITATION,DENISON,TX,GRAYSON,33.77021768,-96.55128107,REHABILITATION
751,WARM SPRINGS REHABILITATION HOSPITAL OF KYLE,KYLE,TX,HAYS,30.00839095,-97.85628014,REHABILITATION
752,PROVIDENCE HOSPITAL,LAREDO,TX,WEBB,27.55637042,-99.49195932,REHABILITATION
753,PHYSICIANS SURGICAL HOSPITAL - QUAIL CREEK,AMARILLO,TX,POTTER,35.21042221,-101.9127795,SPECIAL
754,NORTHWEST HILLS SURGICAL HOSPITAL,AUSTIN,TX,TRAVIS,30.35051386,-97.75171622,SPECIAL
755,USMD HOSPITAL AT ARLINGTON,ARLINGTON,TX,TARRANT,32.67980941,-97.11791224,SPECIAL
756,BAYLOR ORTHOPEDIC AND SPINE HOSPITAL AT ARLINGTON,ARLINGTON,TX,TARRANT,32.68289778,-97.11697677,SPECIAL
757,UNIVERSITY OF TEXAS M.D. ANDERSON CANCER CENTER,HOUSTON,TX,HARRIS,29.70703136,-95.39707717,SPECIAL
758,LUBBOCK HEART HOSPITAL,LUBBOCK,TX,LUBBOCK,33.60321011,-101.9155688,SPECIAL
759,SOUTH TEXAS SPINE AND SURGICAL HOSPITAL,SAN ANTONIO,TX,BEXAR,29.61325343,-98.47736715,SPECIAL
760,BAYLOR HEART AND VASCULAR CENTER,DALLAS,TX,DALLAS,32.78817065,-96.78119411,SPECIAL
761,LEGENT ORTHOPEDIC + SPINE,SAN ANTONIO,TX,BEXAR,29.59073867,-98.59035687,SPECIAL
762,MCALLEN HEART HOSPITAL,MCALLEN,TX,HIDALGO,26.18368016,-98.21822053,SPECIAL
763,METHODIST SPECIALTY & TRANSPLANT HOSPITAL,SAN ANTONIO,TX,BEXAR,29.51422403,-98.57559924,SPECIAL
764,ALTUS BAYTOWN HOSPITAL,BAYTOWN,TX,HARRIS,29.771962100000003,-94.98134416,SPECIAL
765,PHYSICIANS SURGICAL HOSPITAL - PANHANDLE CAMPUS,AMARILLO,TX,POTTER,35.20661691,-101.91869009999999,SPECIAL
766,SHELBY BAPTIST MEDICAL CENTER,ALABASTER,AL,SHELBY,33.25236487,-86.81304301,GENERAL ACUTE CARE
767,SOUTHEAST ALABAMA MEDICAL CENTER,DOTHAN,AL,HOUSTON,31.21630365,-85.36363112,GENERAL ACUTE CARE
768,MEDICAL CENTER BARBOUR,EUFAULA,AL,BARBOUR,31.88864508,-85.15640542,GENERAL ACUTE CARE
769,GROVE HILL MEMORIAL HOSPITAL,GROVE HILL,AL,CLARKE,31.6943023,-87.77602463,GENERAL ACUTE CARE
770,ATMORE COMMUNITY HOSPITAL,ATMORE,AL,ESCAMBIA,31.01702387,-87.47879851,GENERAL ACUTE CARE
771,NORTH MISSISSIPPI MEDICAL CENTER - HAMILTON,HAMILTON,AL,MARION,34.12597718,-87.99076878,GENERAL ACUTE CARE
772,DECATUR MORGAN HOSPITAL - DECATUR CAMPUS,DECATUR,AL,MORGAN,34.59034409,-86.97148153,GENERAL ACUTE CARE
773,GADSDEN REGIONAL MEDICAL CENTER,GADSDEN,AL,ETOWAH,34.00773628,-85.96598214,GENERAL ACUTE CARE
774,SHRINERS HOSPITAL FOR CHILDREN,HONOLULU,HI,HONOLULU,21.30047125,-157.83514350000002,CHILDREN
775,MENTAL HEALTH INSTITUTE,CLARINDA,IA,PAGE,40.75782323,-95.03558055,PSYCHIATRIC
776,CHI HEALTH MERCY HOSPITAL,COUNCIL BLUFFS,IA,POTTAWATTAMIE,41.26878673,-95.83879432,GENERAL ACUTE CARE
777,GROVE CREEK MEDICAL CENTER,BLACKFOOT,ID,BINGHAM,43.19630209,-112.3541696,GENERAL ACUTE CARE
778,MOUNTAIN VIEW HOSPITAL,IDAHO FALLS,ID,BONNEVILLE,43.47436602,-111.98792069999999,GENERAL ACUTE CARE
779,PORTNEUF MEDICAL CENTER,POCATELLO,ID,BANNOCK,42.87385301,-112.42076200000001,GENERAL ACUTE CARE
780,GENESIS MEDICAL CENTER ALEDO,ALEDO,IL,MERCER,41.2055232,-90.75947344,CRITICAL ACCESS
781,BLUE ISLAND HOSPITAL CO LLC DBA METROSOUTH MEDICAL CENTER,BLUE ISLAND,IL,COOK,41.65811419,-87.67783029,GENERAL ACUTE CARE
782,PRESENCE CHICAGO HOSPITALS NETWORK DBA PRESENCE SAINT MARY OF NAZARETH HOSPITAL CENTER,CHICAGO,IL,COOK,41.90253261,-87.68327659,GENERAL ACUTE CARE
783,ADVOCATE TRINITY HOSPITAL,CHICAGO,IL,COOK,41.72650439,-87.56722618,GENERAL ACUTE CARE
784,CHICAGO BEHAVIORAL HOSPITAL,DES PLAINES,IL,COOK,42.04343765,-87.87903414,PSYCHIATRIC
785,PRESANCE CHICAGO HOSPITALS NETWORK DBA PRESENCE HOLY FAMILY MEDICAL CENTER,DES PLAINES,IL,COOK,42.05559711,-87.89003761,LONG TERM CARE
786,MERCY HARVARD HOSPITAL,HARVARD,IL,MCHENRY,42.42623691,-88.60704005,CRITICAL ACCESS
787,HI-DESERT MEDICAL CENTER,JOSHUA TREE,CA,SAN BERNARDINO,34.13189955,-116.2751392,GENERAL ACUTE CARE
788,EDGEMOOR GERIATRIC HOSPITAL,SANTEE,CA,SAN DIEGO,32.85234511,-116.9741142,PSYCHIATRIC
789,DEPARTMENT OF STATE HOSPITAL - ATASCADERO,ATASCADERO,CA,SAN LUIS OBISPO,35.46271761,-120.63489059999999,PSYCHIATRIC
790,HEALDSBURG DISTRICT HOSPITAL,HEALDSBURG,CA,SONOMA,38.62709551,-122.864402,GENERAL ACUTE CARE
791,PALMDALE REGIONAL MEDICAL CENTER,PALMDALE,CA,LOS ANGELES,34.58287763,-118.1443669,GENERAL ACUTE CARE
792,SAN DIMAS COMMUNITY HOSPITAL,SAN DIMAS,CA,LOS ANGELES,34.09750932,-117.8346358,GENERAL ACUTE CARE
793,SAN GABRIEL VALLEY MEDICAL CENTER,SAN GABRIEL,CA,LOS ANGELES,34.10086879,-118.10591880000001,GENERAL ACUTE CARE
794,MENIFEE VALLEY MEDICAL CENTER,SUN CITY,CA,RIVERSIDE,33.71950227,-117.16803300000001,GENERAL ACUTE CARE
795,RIVERSIDE COUNTY REGIONAL MEDICAL CENTER - D/P APH,RIVERSIDE,CA,RIVERSIDE,33.919001200000004,-117.4598561,GENERAL ACUTE CARE
796,CIRBY HILLS BEHAVIORAL HEALTH,ROSEVILLE,CA,PLACER,38.73039978,-121.28617479999998,PSYCHIATRIC
797,FRESNO HEART AND SURGICAL HOSPITAL,FRESNO,CA,FRESNO,36.86012591,-119.78857169999999,GENERAL ACUTE CARE
798,SAN JOAQUIN VALLEY REHABILITATION HOSPITAL,FRESNO,CA,FRESNO,36.83997451,-119.76055349999999,GENERAL ACUTE CARE
799,JEROLD PHELPS COMMUNITY HOSPITAL,GARBERVILLE,CA,HUMBOLDT,40.10167816,-123.79225459999999,GENERAL ACUTE CARE
800,MAMMOTH HOSPITAL,MAMMOTH LAKES,CA,MONO,37.64395021,-118.96232890000002,GENERAL ACUTE CARE
801,CHAPMAN MEDICAL CENTER,ORANGE,CA,ORANGE,33.78861494,-117.8264132,GENERAL ACUTE CARE
802,FOUNTAIN VALLEY RGNL HOSP AND MED CTR - EUCLID,FOUNTAIN VALLEY,CA,ORANGE,33.71493477,-117.93596950000001,GENERAL ACUTE CARE
803,STANISLAUS SURGICAL HOSPITAL,MODESTO,CA,STANISLAUS,37.66480107,-120.9584999,GENERAL ACUTE CARE
804,PORTERVILLE DEVELOPMENTAL CENTER,PORTERVILLE,CA,TULARE,36.03977122,-118.98341880000001,GENERAL ACUTE CARE
805,EASTSIDE MEDICAL CENTER,SNELLVILLE,GA,GWINNETT,33.87756855,-84.02107387,GENERAL ACUTE CARE
806,CANDLER COUNTY HOSPITAL,METTER,GA,CANDLER,32.40713253,-82.06552421,CRITICAL ACCESS
807,SELECT SPECIALTY HOSPITAL - ATLANTA,ATLANTA,GA,FULTON,33.76931988,-84.38555362,LONG TERM CARE
808,PUTNAM GENERAL HOSPITAL,EATONTON,GA,PUTNAM,33.3358662,-83.37094562,CRITICAL ACCESS
809,COLQUITT REGIONAL MEDICAL CENTER,MOULTRIE,GA,COLQUITT,31.125630100000002,-83.78037885,GENERAL ACUTE CARE
810,EVANS MEMORIAL HOSPITAL,CLAXTON,GA,EVANS,32.16588314,-81.89902445,GENERAL ACUTE CARE
811,TULANE - LAKESIDE HOSPITAL,METAIRIE,LA,JEFFERSON,29.99675625,-90.18663376,GENERAL ACUTE CARE
812,MILLER COUNTY HOSPITAL,COLQUITT,GA,MILLER,31.17548231,-84.73501832,CRITICAL ACCESS
813,PIEDMONT ROCKDALE HOSPITAL,CONYERS,GA,ROCKDALE,33.68072383,-84.00157525,GENERAL ACUTE CARE
814,WARM SPRINGS MEDICAL CENTER,WARM SPRINGS,GA,MERIWETHER,32.8896319,-84.68374246,GENERAL ACUTE CARE
815,JEFFERSON HOSPITAL,LOUISVILLE,GA,JEFFERSON,33.00986749,-82.40554579,GENERAL ACUTE CARE
816,JEFF DAVIS HOSPITAL,HAZLEHURST,GA,JEFF DAVIS,31.85720986,-82.60714696,GENERAL ACUTE CARE
817,UNION GENERAL HOSPITAL,BLAIRSVILLE,GA,UNION,34.8861,-83.9623,GENERAL ACUTE CARE
818,JENKINS COUNTY HOSPITAL,MILLEN,GA,JENKINS,32.80423951,-81.93453709,CRITICAL ACCESS
819,INDIANA UNIVERSITY HEALTH TRANSPLANT,INDIANAPOLIS,IN,MARION,39.78980112,-86.16310064,GENERAL ACUTE CARE
820,TULANE MEDICAL CENTER,NEW ORLEANS,LA,ORLEANS,29.95480011,-90.07690391,GENERAL ACUTE CARE
822,ST. JAMES BEHAVIORAL HEALTH HOSPITAL,GONZALES,LA,ASCENSION,30.20350204,-90.95195201,PSYCHIATRIC
823,FRANKLIN FOUNDATION HOSPITAL,FRANKLIN,LA,ST. MARY,29.80074801,-91.52382805,GENERAL ACUTE CARE
824,PHYSICIANS MEDICAL CENTER,HOUMA,LA,TERREBONNE,29.599562300000002,-90.74837078,GENERAL ACUTE CARE
825,ABROM KAPLAN MEMORIAL HOSPITAL,KAPLAN,LA,VERMILION,30.00808717,-92.29706768,GENERAL ACUTE CARE
826,ST. JAMES PARISH HOSPITAL,LUTCHER,LA,ST. JAMES,30.05187089,-90.70398448,GENERAL ACUTE CARE
827,CYPRESS GROVE BEHAVIORAL HEALTH LLC,BASTROP,LA,MOREHOUSE,32.78099852,-91.94289058,PSYCHIATRIC
828,VILLA FELICIANA MEDICAL COMPLEX,JACKSON,LA,EAST FELICIANA,30.83549912,-91.1585267,GENERAL ACUTE CARE
829,EAST CARROLL PARISH HOSPITAL,LAKE PROVIDENCE,LA,EAST CARROLL,32.81056968,-91.17235444,GENERAL ACUTE CARE
830,PROMISE HOSPITAL OF LOUISIANA-BOSSIER CITY CAMPUS,BOSSIER CITY,LA,BOSSIER,32.55600839,-93.71686367,LONG TERM CARE
831,HARDTNER MEDICAL CENTER,OLLA,LA,LA SALLE,31.86065862,-92.27558967,GENERAL ACUTE CARE
832,AVOYELLES HOSPITAL,MARKSVILLE,LA,AVOYELLES,31.1435452,-92.06294601,GENERAL ACUTE CARE
833,PAM SPECIALTY HOSPITAL OF COVINGTON,COVINGTON,LA,ST. TAMMANY,30.44740542,-90.07312565,LONG TERM CARE
834,HOOD MEMORIAL HOSPITAL,AMITE,LA,TANGIPAHOA,30.73254578,-90.51306631,GENERAL ACUTE CARE
835,OCHSNER MEDICAL CENTER-BATON ROUGE,BATON ROUGE,LA,EAST BATON ROUGE,30.44255395,-90.99965218,GENERAL ACUTE CARE
836,LAKE CHARLES MEMORIAL HOSPITAL FOR WOMEN,LAKE CHARLES,LA,CALCASIEU,30.14061776,-93.24706275,WOMEN
837,WAUKESHA CTY MENTAL HLTH CTR,WAUKESHA,WI,WAUKESHA,43.02606522,-88.23280782,PSYCHIATRIC
838,BUTTE COUNTY PHF,CHICO,CA,BUTTE,39.75456397,-121.84764879999999,PSYCHIATRIC
839,COLORADO RIVER MEDICAL CENTER,NEEDLES,CA,SAN BERNARDINO,34.83306592,-114.617494,GENERAL ACUTE CARE
840,ALVARADO HOSPITAL MEDICAL CENTER,SAN DIEGO,CA,SAN DIEGO,32.77658639,-117.05706459999999,GENERAL ACUTE CARE
841,ALVARADO PARKWAY INSTITUTE B.H.S.,LA MESA,CA,SAN DIEGO,32.77463167,-117.0441618,PSYCHIATRIC
842,KINDRED HOSPITAL - SAN DIEGO,SAN DIEGO,CA,SAN DIEGO,32.75638366,-117.14464540000002,GENERAL ACUTE CARE
843,PARADISE VALLEY HOSPITAL,NATIONAL CITY,CA,SAN DIEGO,32.68534055,-117.08233670000001,GENERAL ACUTE CARE
844,LAGUNA HONDA HOSPITAL AND REHABILITATION CENTER,SAN FRANCISCO,CA,SAN FRANCISCO,37.77436408,-122.42587340000001,GENERAL ACUTE CARE
845,DESOTO REGIONAL HEALTH SYSTEM,MANSFIELD,LA,DE SOTO,32.03540413,-93.70814706,GENERAL ACUTE CARE
846,EUNICE EXTENDED CARE HOSPITAL,EUNICE,LA,ST. LANDRY,30.49615595,-92.37533383,LONG TERM CARE
847,LANGLEY PORTER PSYCHIATRIC INSTITUTE,SAN FRANCISCO,CA,SAN FRANCISCO,37.76347235,-122.45685060000001,PSYCHIATRIC
848,UCSF MEDICAL CENTER,SAN FRANCISCO,CA,SAN FRANCISCO,37.76307685,-122.45787720000001,GENERAL ACUTE CARE
849,UCSF MEDICAL CENTER AT MOUNT ZION,SAN FRANCISCO,CA,SAN FRANCISCO,37.78491971,-122.43914720000001,GENERAL ACUTE CARE
850,COAST PLAZA DOCTORS HOSPITAL,NORWALK,CA,LOS ANGELES,33.91269312,-118.09882160000001,GENERAL ACUTE CARE
851,COMMUNITY HOSPITAL OF HUNTINGTON PARK,HUNTINGTON PARK,CA,LOS ANGELES,33.98948957,-118.2241899,GENERAL ACUTE CARE
852,LOS ANGELES COUNTY OLIVE VIEW-UCLA MEDICAL CENTER,SYLMAR,CA,LOS ANGELES,34.32587172,-118.44576409999998,GENERAL ACUTE CARE
853,DOCS SURGICAL HOSPITAL,LOS ANGELES,CA,LOS ANGELES,34.05736635,-118.36245859999998,GENERAL ACUTE CARE
854,OLYMPIA MEDICAL CENTER,LOS ANGELES,CA,LOS ANGELES,34.05729227,-118.3605273,GENERAL ACUTE CARE
855,"PACIFIC ALLIANCE MEDICAL CENTER, INC.",LOS ANGELES,CA,LOS ANGELES,34.06488002,-118.2392278,GENERAL ACUTE CARE
856,WEST HILLS HOSPITAL AND MEDICAL CENTER,WEST HILLS,CA,LOS ANGELES,34.20285942,-118.62862369999999,GENERAL ACUTE CARE
857,HAZEL HAWKINS MEMORIAL HOSPITAL,HOLLISTER,CA,SAN BENITO,36.83420125,-121.3861936,GENERAL ACUTE CARE
858,CORONA REGIONAL MEDICAL CENTER-MAIN,CORONA,CA,RIVERSIDE,33.873037700000005,-117.5683209,GENERAL ACUTE CARE
859,PATIENTS' HOSPITAL OF REDDING,REDDING,CA,SHASTA,40.58592165,-122.41683090000001,GENERAL ACUTE CARE
860,KENTFIELD REHABILITATION HOSPITAL,KENTFIELD,CA,MARIN,37.95870622,-122.5524959,GENERAL ACUTE CARE
861,SURPRISE VALLEY COMMUNITY HOSPITAL,CEDARVILLE,CA,MODOC,41.53148907,-120.1714281,GENERAL ACUTE CARE
862,FRESNO SURGICAL HOSPITAL,FRESNO,CA,FRESNO,36.82491409,-119.7821616,GENERAL ACUTE CARE
863,TRINITY HOSPITAL,WEAVERVILLE,CA,TRINITY,40.73808351,-122.93965690000002,GENERAL ACUTE CARE
864,"PACIFIC ORANGE HOSPITAL, LLC",ANAHEIM,CA,ORANGE,33.81584699,-118.0071811,GENERAL ACUTE CARE
865,GARDEN GROVE HOSPITAL AND MEDICAL CENTER,GARDEN GROVE,CA,ORANGE,33.77498597,-117.9130929,GENERAL ACUTE CARE
866,WEST ANAHEIM MEDICAL CENTER,ANAHEIM,CA,ORANGE,33.82538521,-117.9950736,GENERAL ACUTE CARE
867,OAK VALLEY DISTRICT HOSPITAL (2-RH),OAKDALE,CA,STANISLAUS,37.75761627,-120.86099660000001,GENERAL ACUTE CARE
868,KAWEAH DELTA REHABILITATION HOSPITAL,VISALIA,CA,TULARE,36.32260683,-119.34793470000001,GENERAL ACUTE CARE
869,WEST PACES MEDICAL CENTER,ATLANTA,GA,FULTON,33.84252443,-84.42708736,GENERAL ACUTE CARE
870,YOUTH VILLAGES - INNER HARBOUR CAMPUS,DOUGLASVILLE,GA,DOUGLAS,33.67768895,-84.73391954,PSYCHIATRIC
871,WASHINGTON COUNTY HOSPITAL,PLYMOUTH,NC,WASHINGTON,35.86278208,-76.72928368,GENERAL ACUTE CARE
872,DOCTOR'S HOSPITAL AT DEER CREEK,LEESVILLE,LA,VERNON,31.13563535,-93.26882275,GENERAL ACUTE CARE
873,SOUTHEAST REGIONAL MEDICAL CENTER,KENTWOOD,LA,TANGIPAHOA,30.93712864,-90.51924697,LONG TERM CARE
874,DEQUINCY MEMORIAL HOSPITAL,DEQUINCY,LA,CALCASIEU,30.45252084,-93.43642444,GENERAL ACUTE CARE
875,ALVARADO HOSPITAL MEDICAL CENTER,SAN DIEGO,CA,SAN DIEGO,32.77685835,-117.05768130000001,GENERAL ACUTE CARE
876,CALIFORNIA PACIFIC MED CTR-DAVIES CAMPUS,SAN FRANCISCO,CA,SAN FRANCISCO,37.76868428,-122.4345303,GENERAL ACUTE CARE
877,CALIFORNIA PACIFIC MEDICAL CENTER - ST. LUKE'S CAMPUS,SAN FRANCISCO,CA,SAN FRANCISCO,37.74771786,-122.4207679,GENERAL ACUTE CARE
878,"CALIFORNIA REHABILITATION INSTITUTE, LLC",LOS ANGELES,CA,LOS ANGELES,34.05910293,-118.41186809999999,GENERAL ACUTE CARE
879,DOCTORS MEDICAL CENTER-BEHAVIORAL HEALTH DEPARTMENT,MODESTO,CA,STANISLAUS,37.66582401,-120.92223190000001,GENERAL ACUTE CARE
880,SOUTHERN CALIFORNIA HOSPITAL AT VAN NUYS D/P APH,VAN NUYS,CA,LOS ANGELES,34.176900700000004,-118.44749080000001,GENERAL ACUTE CARE
881,DEPARTMENT OF STATE HOSPITAL - COALINGA,COALINGA,CA,FRESNO,36.13354829,-120.24044599999999,PSYCHIATRIC
882,MAYERS MEMORIAL HOSPITAL,FALL RIVER MILLS,CA,SHASTA,41.02388936,-121.4240544,GENERAL ACUTE CARE
883,SANTA MONICA - UCLA MEDICAL CENTER & ORTHOPAEDIC HOSPITAL,SANTA MONICA,CA,LOS ANGELES,34.02770868,-118.48689240000002,GENERAL ACUTE CARE
884,SHASTA COUNTY P H F,REDDING,CA,SHASTA,40.55013511,-122.3804882,PSYCHIATRIC
885,TELECARE SANTA CRUZ PHF,SANTA CRUZ,CA,SANTA CRUZ,36.98336892,-121.99394709999999,PSYCHIATRIC
886,VENTURA COUNTY MEDICAL CENTER - SANTA PAULA HOSPITAL,SANTA PAULA,CA,VENTURA,34.3664467,-119.06491480000001,GENERAL ACUTE CARE
887,PIEDMONT COLUMDUS REGIONAL NORTHSIDE,COLUMBUS,GA,MUSCOGEE,32.5345248,-84.95121257,GENERAL ACUTE CARE
888,"REGENCY HOSPITAL COMPANY OF MACON, LLC",MACON,GA,BIBB,32.84770524,-83.61527747,GENERAL ACUTE CARE
889,CHATUGE REGIONAL HOSPITAL,HIAWASSEE,GA,TOWNS,34.94657646,-83.75391529999999,CRITICAL ACCESS
890,CANDLER HOSPITAL,SAVANNAH,GA,CHATHAM,32.02816667,-81.10010925,GENERAL ACUTE CARE
891,ADVENTHEALTH MURRAY,CHATSWORTH,GA,MURRAY,34.780041,-84.78317545,GENERAL ACUTE CARE
892,TANNER MEDICAL CENTER - CARROLLTON,CARROLLTON,GA,CARROLL,33.56947772,-85.0752262,GENERAL ACUTE CARE
893,PIEDMONT FAYETTE HOSPITAL,FAYETTEVILLE,GA,FAYETTE,33.45214711,-84.50798999,GENERAL ACUTE CARE
894,ROOSEVELT WARM SPRINGS REHABILITATION HOSPITAL,WARM SPRINGS,GA,MERIWETHER,32.88732639,-84.69407001,REHABILITATION
895,RIVERWOODS BEHAVIORAL HEALTH SYSTEM,RIVERDALE,GA,CLAYTON,33.58221296,-84.39071671,GENERAL ACUTE CARE
896,WESLEY WOODS GERIATRIC HOSPITAL,ATLANTA,GA,DEKALB,33.80487845,-84.33140996,GENERAL ACUTE CARE
897,THEDACARE MEDICAL CENTER NEW LONDON,NEW LONDON,WI,OUTAGAMIE,44.38115627,-88.73370085,CRITICAL ACCESS
898,AURORA ST LUKES MED CTR SOUTH SHORE,CUDAHY,WI,MILWAUKEE,42.93633907,-87.85117278,GENERAL ACUTE CARE
899,POST ACUTE MEDICAL SPECIALTY HOSPITAL OF MILWAUKEE,GREENFIELD,WI,MILWAUKEE,42.95367246,-88.05096986,LONG TERM CARE
900,AURORA ST LUKES MEDICAL CENTER,MILWAUKEE,WI,MILWAUKEE,42.98962623,-87.95021077,GENERAL ACUTE CARE
901,AURORA WEST ALLIS MEDICAL CENTER,WEST ALLIS,WI,MILWAUKEE,43.00142505,-88.02347389,GENERAL ACUTE CARE
902,BALDWIN AREA MED CTR,BALDWIN,WI,ST. CROIX,44.9708939,-92.37410375,GENERAL ACUTE CARE
903,BELLIN HEALTH OCONTO HOSPITAL,OCONTO,WI,OCONTO,44.89638033,-87.86555418,GENERAL ACUTE CARE
904,ENCOMPASS HEALTH REHABILITATION HOSPITAL OF ALEXANDRIA,ALEXANDRIA,LA,RAPIDES,31.31768328,-92.45233196,REHABILITATION
905,HOUMA-AMG SPECIALTY HOSPITAL,HOUMA,LA,TERREBONNE,29.59298784,-90.71204306,LONG TERM CARE
906,OCHSNER MEDICAL CENTER,NEW ORLEANS,LA,JEFFERSON,29.96140175,-90.14555057,GENERAL ACUTE CARE
907,LODI MEMORIAL HOSPITAL - WEST,LODI,CA,SAN JOAQUIN,38.12385822,-121.3059068,GENERAL ACUTE CARE
908,TARZANA TREATMENT CENTER,TARZANA,CA,LOS ANGELES,34.17944583,-118.53985619999999,PSYCHIATRIC
909,ST. JUDE MEDICAL CENTER,FULLERTON,CA,ORANGE,33.89354835,-117.9274627,GENERAL ACUTE CARE
910,AUGUSTA MEDICAL CENTER,FISHERSVILLE,VA,AUGUSTA,38.09452441,-78.98683733,GENERAL ACUTE CARE
911,CHILDREN'S HOSPITAL COLORADO AT ST JOSEPHS HOSP,DENVER,CO,DENVER,39.74525179,-104.968043,CHILDREN
912,SAUK PRAIRIE MEM HSPTL,PRAIRIE DU SAC,WI,SAUK,43.28285398,-89.72006455,GENERAL ACUTE CARE
913,THEDA CLARK MED CTR,NEENAH,WI,WINNEBAGO,44.18748956,-88.45338493,GENERAL ACUTE CARE
914,ADVENTIST HEALTH SONORA REGIONAL MEDICAL CENTER D/P SNF (UNIT 6 AND 7),SONORA,CA,TUOLUMNE,37.97966734,-120.3907956,GENERAL ACUTE CARE
915,SANTA BARBARA COTTAGE HOSPITAL,SANTA BARBARA,CA,SANTA BARBARA,34.42946669,-119.723809,GENERAL ACUTE CARE
916,CENTURY HOSPITAL MEDICAL CENTER,CENTURY,FL,ESCAMBIA,30.97039384,-87.25759799,GENERAL ACUTE CARE
917,SCOTTSDALE HEALTHCARE THOMPSON PEAK,SCOTTSDALE,AZ,MARICOPA,33.67112932,-111.92232240000001,GENERAL ACUTE CARE
918,HEBREW REHABILITATION CENTER,BOSTON,MA,SUFFOLK,42.29680056,-71.13179781,REHABILITATION
919,LEMUEL SATTUCK HOSPITAL,BOSTON,MA,SUFFOLK,42.299580999999996,-71.10174298,PSYCHIATRIC
920,ALEGENT HEALTH COMMUNITY MEMORIAL HOSPITAL,MISSOURI VALLEY,IA,HARRISON,41.56294365,-95.88561847,CRITICAL ACCESS
921,GAYLORD HOSPITAL,WALLINGFORD,CT,NEW HAVEN,41.47288478,-72.85676125,CHRONIC DISEASE
922,HEBREW REHABILITATION CENTER AT DEDHAM,DEDHAM,MA,NORFOLK,42.26653577,-71.19502243,REHABILITATION
923,WESTWOOD/PEMBROKE HEALTH SYSTEM PEMBROKE,PEMBROKE,MA,PLYMOUTH,42.09762372,-70.76445864,PSYCHIATRIC
924,"WALDEN BEHAVIORAL CARE, LLC",WALTHAM,MA,MIDDLESEX,42.369626000000004,-71.249339,PSYCHIATRIC
925,NEW ENGLAND SINAI HOSPITAL,STOUGHTON,MA,NORFOLK,42.14462655,-71.09882863,REHABILITATION
926,STURGIS HOSPITAL,STURGIS,MI,ST. JOSEPH,41.79462863,-85.40756479999999,GENERAL ACUTE CARE
927,SPECTRUM HEALTH PENNOCK HOSPITAL,HASTINGS,MI,BARRY,42.6447739,-85.30282524,GENERAL ACUTE CARE
928,MCLAREN BAY REGION,BAY CITY,MI,BAY,43.58821643,-83.86839615,GENERAL ACUTE CARE
929,FOREST HEALTH MEDICAL CENTER,YPSILANTI,MI,WASHTENAW,42.23757106,-83.60064759999999,GENERAL ACUTE CARE
930,MARY FREE BED HOSPITAL & REHABILITATION CENTER,GRAND RAPIDS,MI,KENT,42.95697388,-85.66274625,GENERAL ACUTE CARE
931,ASPIRUS KEWEENAW HOSPITAL,LAURIUM,MI,HOUGHTON,47.23878317,-88.44350085,GENERAL ACUTE CARE
932,DICKINSON COUNTY MEMORIAL HOSPITAL,IRON MOUNTAIN,MI,DICKINSON,45.80987806,-88.04445124,GENERAL ACUTE CARE
933,FREDONIA REGIONAL HOSPITAL,FREDONIA,KS,WILSON,37.53406788,-95.81415202,CRITICAL ACCESS
934,"ASPIRUS ONTONAGON HOSPITAL, INC",ONTONAGON,MI,ONTONAGON,46.86559536,-89.30165846,GENERAL ACUTE CARE
935,OTSEGO MEMORIAL HOSPITAL,GAYLORD,MI,OTSEGO,45.03532708,-84.6749176,GENERAL ACUTE CARE
936,ST MARY'S OF MICHIGAN-TOWNE CTR,SAGINAW,MI,SAGINAW,43.47397228,-83.96493169,GENERAL ACUTE CARE
937,CHIPPEWA CO MONTEVIDEO HOSP,MONTEVIDEO,MN,CHIPPEWA,44.954461200000004,-95.71181072,CRITICAL ACCESS
938,MAYO CLINIC HEALTH SYS AUSTIN,AUSTIN,MN,MOWER,43.67448476,-92.97764976,GENERAL ACUTE CARE
939,MERCY HOSPITAL JOPLIN,JOPLIN,MO,NEWTON,37.0365134,-94.50970928,GENERAL ACUTE CARE
940,COX MEDICAL CENTERS SOUTH HOSPITAL,SPRINGFIELD,MO,GREENE,37.14494625,-93.27967732,GENERAL ACUTE CARE
941,COX MEDICAL CENTERS NORTH HOSPITAL,SPRINGFIELD,MO,GREENE,37.22478249,-93.28996378,GENERAL ACUTE CARE
942,KINDRED HOSPITAL NORTHLAND,KANSAS CITY,MO,CLAY,39.21928776,-94.58726916,LONG TERM CARE
943,CAMERON REGIONAL MEDICAL CENTER,CAMERON,MO,CLINTON,39.73043495,-94.21805603,GENERAL ACUTE CARE
944,CENTERPOINT MEDICAL CENTER,INDEPENDENCE,MO,JACKSON,39.0495448,-94.34890382,GENERAL ACUTE CARE
945,CRITTENTON CHILDREN'S CENTER,KANSAS CITY,MO,JACKSON,38.9243011,-94.4811889,PSYCHIATRIC
946,RESEARCH MEDICAL CENTER,KANSAS CITY,MO,JACKSON,39.00889984,-94.55812509,GENERAL ACUTE CARE
947,RESEARCH PSYCHIATRIC CENTER,KANSAS CITY,MO,JACKSON,39.0114033,-94.56001654,PSYCHIATRIC
948,TRUMAN MEDICAL CENTER - LAKEWOOD,KANSAS CITY,MO,JACKSON,38.97539187,-94.39435345,GENERAL ACUTE CARE
949,NEVADA REGIONAL MEDICAL CENTER,NEVADA,MO,VERNON,37.83118452,-94.36048553,GENERAL ACUTE CARE
950,COMMUNITY HOSPITAL FAIRFAX,FAIRFAX,MO,ATCHISON,40.33854875,-95.39045385,CRITICAL ACCESS
951,BATES COUNTY MEMORIAL HOSPITAL,BUTLER,MO,BATES,38.24902844,-94.34288588,GENERAL ACUTE CARE
952,NORTHWEST MO PSYCHIATRIC REHAB CTR,ST. JOSEPH,MO,BUCHANAN,39.77848924,-94.8114026,PSYCHIATRIC
953,BELTON REGIONAL MEDICAL CENTER,BELTON,MO,CASS,38.81581302,-94.50300191,GENERAL ACUTE CARE
954,FREEMAN HOSPITAL EAST,JOPLIN,MO,NEWTON,37.05075263,-94.50700683,GENERAL ACUTE CARE
955,FREEMAN HOSPITAL WEST,JOPLIN,MO,NEWTON,37.05273128,-94.52679809,GENERAL ACUTE CARE
956,LANDMARK HOSPITAL OF JOPLIN,JOPLIN,MO,NEWTON,37.05353824,-94.53838146,LONG TERM CARE
957,FREEMAN NEOSHO HOSPITAL,NEOSHO,MO,NEWTON,36.86695396,-94.36946792,CRITICAL ACCESS
958,ST. LUKE'S HOSPITAL,CHESTERFIELD,MO,ST. LOUIS,38.65129081,-90.50322354,GENERAL ACUTE CARE
959,BARNES-JEWISH WEST COUNTY HOSPITAL,CREVE COEUR,MO,ST. LOUIS,38.67622289,-90.46799797,GENERAL ACUTE CARE
960,ST. LUKE'S REHABILITATION HOSPITAL,CHESTERFIELD,MO,ST. LOUIS,38.67570773,-90.53217838,REHABILITATION
961,RANKEN JORDAN A PEDIATRIC REHABILITATION CENTER,MARYLAND HEIGHTS,MO,ST. LOUIS,38.70995791,-90.41544851,REHABILITATION
962,CHRISTIAN HOSPITAL NORTHEAST-NORTHWEST,ST. LOUIS,MO,ST. LOUIS,38.77658169,-90.24035806,GENERAL ACUTE CARE
963,STE GENEVIEVE COUNTY MEMORIAL HOSPITAL,STE GENEVIEVE,MO,STE. GENEVIEVE,37.96934223,-90.05465491,CRITICAL ACCESS
964,PARKLAND HEALTH CENTER-BONNE TERRE,BONNE TERRE,MO,ST. FRANCOIS,37.90805702,-90.524364,CRITICAL ACCESS
965,SOUTHEASTHEALTH CENTER OF RIPLEY COUNTY,DONIPHAN,MO,RIPLEY,36.62129738,-90.82581957,GENERAL ACUTE CARE
966,SSM ST. JOSEPH HEALTH CENTER,ST. CHARLES,MO,ST. CHARLES,38.78090867,-90.48462054,GENERAL ACUTE CARE
967,SSM ST. JOSEPH HEALTH CENTER-WENTZVILLE,WENTZVILLE,MO,ST. CHARLES,38.82215041,-90.880721,GENERAL ACUTE CARE
968,SSM ST. JOSEPH HOSPITAL WEST,LAKE ST. LOUIS,MO,ST. CHARLES,38.80279667,-90.77574675,GENERAL ACUTE CARE
969,CENTERPOINTE HOSPITAL,ST. CHARLES,MO,ST. CHARLES,38.7149685,-90.67188926,PSYCHIATRIC
970,BARNES-JEWISH ST. PETERS HOSPITAL,ST. PETERS,MO,ST. CHARLES,38.79360505,-90.57961531,GENERAL ACUTE CARE
971,FITZGIBBON HOSPITAL,MARSHALL,MO,SALINE,39.09149817,-93.21315913,GENERAL ACUTE CARE
972,WRIGHT MEMORIAL HOSPITAL,TRENTON,MO,GRUNDY,40.06786699,-93.58163967,CRITICAL ACCESS
973,MERCY HOSPITAL WASHINGTON,WASHINGTON,MO,FRANKLIN,38.55259009,-91.00213473,GENERAL ACUTE CARE
974,HERMANN AREA DISTRICT HOSPITAL,HERMANN,MO,GASCONADE,38.69307813,-91.44958555,CRITICAL ACCESS
975,IRON COUNTY HOSPITAL,PILOT KNOB,MO,IRON,37.62312389,-90.64471795,CRITICAL ACCESS
976,SALEM MEMORIAL DISTRICT HOSPITAL,SULLIVAN,MO,DENT,37.66045595,-91.56935238,CRITICAL ACCESS
977,WASHINGTON COUNTY MEMORIAL HOSPITAL,POTOSI,MO,WASHINGTON,37.92597311,-90.77266582,CRITICAL ACCESS
978,SULLIVAN COUNTY MEMORIAL HOSPITAL,MILAN,MO,SULLIVAN,40.20162729,-93.13381402,CRITICAL ACCESS
979,PUTNAM COUNTY MEMORIAL HOSPITAL,UNIONVILLE,MO,PUTNAM,40.48274509,-93.00564602,CRITICAL ACCESS
980,PHELPS COUNTY REGIONAL MEDICAL CENTER,ROLLA,MO,PHELPS,37.95248953,-91.78598299,GENERAL ACUTE CARE
981,SAINT FRANCIS MEDICAL CENTER,CAPE GIRARDEAU,MO,CAPE GIRARDEAU,37.30358194,-89.57114498,GENERAL ACUTE CARE
982,PERRY COUNTY MEMORIAL HOSPITAL,PERRYVILLE,MO,PERRY,37.73088242,-89.86563015,CRITICAL ACCESS
983,TEXAS COUNTY MEMORIAL HOSPITAL,HOUSTON,MO,TEXAS,37.31612169,-91.96116854,GENERAL ACUTE CARE
984,ELLETT MEMORIAL HOSPITAL,APPLETON CITY,MO,ST. CLAIR,38.19247494,-94.02125496,CRITICAL ACCESS
985,ROYAL OAKS HOSPITAL,WINDSOR,MO,HENRY,38.53413331,-93.51852932,PSYCHIATRIC
986,LAFAYETTE REGIONAL HEALTH CENTER,LEXINGTON,MO,LAFAYETTE,39.18972877,-93.87727791,CRITICAL ACCESS
987,MERCY HOSPITAL CASSVILLE,CASSVILLE,MO,BARRY,36.67478257,-93.87209284,CRITICAL ACCESS
988,RAY COUNTY MEMORIAL HOSPITAL,RICHMOND,MO,RAY,39.26437785,-93.95742114,CRITICAL ACCESS
989,HEDRICK MEDICAL CENTER,CHILLICOTHE,MO,LIVINGSTON,39.8171416,-93.55101621,CRITICAL ACCESS
990,OSAGE BEACH CENTER FOR COGNITIVE DISORDERS,OSAGE BEACH,MO,CAMDEN,38.13496351,-92.62888933,PSYCHIATRIC
991,MERCY ORTHOPEDIC HOSPITAL SPRINGFIELD,OZARK,MO,GREENE,37.09895339,-93.23474195,SPECIAL
992,MERCY REHABILITATION HOSPITAL SPRINGFIELD,SPRINGFIELD,MO,GREENE,37.104586,-93.2356021,REHABILITATION
993,CEDAR COUNTY MEMORIAL HOSPITAL,EL DORADO SPRINGS,MO,CEDAR,37.86022532,-94.01701241,CRITICAL ACCESS
994,KINDRED HOSPITAL ST LOUIS SOUTH,ST. LOUIS,MO,ST. LOUIS,38.50742341,-90.38001855,GENERAL ACUTE CARE
995,MONROE REGIONAL HOSPITAL,ABERDEEN,MS,MONROE,33.82018241,-88.54024448,GENERAL ACUTE CARE
996,NOVANT HEALTH HUNTERSVILLE MEDICAL CENTER,HUNTERSVILLE,NC,MECKLENBURG,35.40644418,-80.8602609,GENERAL ACUTE CARE
997,NOVANT HEALTH MATTHEWS MEDICAL CENTER,MATTHEWS,NC,MECKLENBURG,35.11998481,-80.71407841,GENERAL ACUTE CARE
998,NOVANT HOSPITAL CHARLOTTE ORTHOPEDIC HOSPITAL,CHARLOTTE,NC,MECKLENBURG,35.2107976,-80.82352152,GENERAL ACUTE CARE
999,NOVANT HEALTH ROWAN MEDICAL CENTER,SALISBURY,NC,ROWAN,35.68126984,-80.47070794,GENERAL ACUTE CARE
